stop_lat,zone_id,stop_lon,stop_id,stop_desc,stop_name,location_type
43.498785,,-80.498918,2031,EasyGO2031,Meadowvale / Dansbury,0
43.433097,,-80.436623,1869,EasyGO1869,Kinzie / Walker,0
43.434163,,-80.43499,1868,EasyGO1868,Kinzie / Obermeyer,0
43.38304436,,-80.42879558,3999,EasyGO3999,Doon Mills / Woodsmere,0
43.41642497,,-80.38766914,2318,EasyGO2318,Maple Grove / Cherry Blossom,0
43.45187,,-80.487045,2319,EasyGO2319,Weber / Queen,0
43.42906,,-80.379022,2316,EasyGO2316,Loblaws,0
43.423803,,-80.38154,2317,EasyGO2317,Maple Grove / Fountain,0
43.41628,,-80.37569,2314,EasyGO2314,Fountain / Toyota Gate 1,0
43.418968,,-80.376648,2315,EasyGO2315,Fountain / Toyota Gate 2,0
43.4126,,-80.3751,2312,EasyGO2312,Cherry Blossom / Fountain,0
43.415303,,-80.383427,2310,EasyGO2310,Cherry Blossom / Barnes,0
43.45665023,,-80.50213401,2311,EasyGO2311,Shanley / Moore,0
43.4827,,-80.5239,3773,EasyGO3773,Columbia / Weber,0
43.483,,-80.5236,3772,EasyGO3772,Columbia / Weber,0
43.4841,,-80.5205,3771,EasyGO3771,Columbia / Marsland,0
43.4875,,-80.5185,3770,EasyGO3770,Lexington / Dearborn,0
43.4969,,-80.5459,3777,EasyGO3777,Parkside / Northfield,0
43.4949,,-80.5445,3776,EasyGO3776,551 Parkside Dr.,0
43.4934,,-80.5444,3775,EasyGO3775,Parkside / Weber,0
43.4945,,-80.5484,3774,EasyGO3774,Weber / Glen Forrest,0
43.35859,,-80.317492,2268,EasyGO2268,Grand / South Square,0
43.354137,,-80.302748,2269,EasyGO2269,Christopher / Elliott,0
43.342903,,-80.327752,2262,EasyGO2262,Fourth / Vincent,0
43.34317,,-80.331443,2263,EasyGO2263,Fourth / St. Andrews,0
43.340993,,-80.32386,2260,EasyGO2260,Culham / Tait,0
43.343533,,-80.324195,2261,EasyGO2261,Tait / Fourth,0
43.350137,,-80.336173,2266,EasyGO2266,Southwood / Cedar,0
43.351588,,-80.328497,2267,EasyGO2267,Westgate Ctr.,0
43.344695,,-80.331595,2264,EasyGO2264,Southwood / St. Andrews,0
43.346087,,-80.334843,2265,EasyGO2265,Southwood / Westwood,0
43.469296,,-80.484374,2442,EasyGO2442,Lancaster / Ash,0
43.468057,,-80.484342,2443,EasyGO2443,Lancaster / Arnold,0
43.47506,,-80.48445,2440,EasyGO2440,Lancaster / Hamel,0
43.471371,,-80.484452,2441,EasyGO2441,Lancaster / Union,0
43.462147,,-80.483798,2446,EasyGO2446,Lancaster / Louisa,0
43.460708,,-80.484153,2447,EasyGO2447,Wellington / Major,0
43.465378,,-80.4843,2444,EasyGO2444,Lancaster / Guelph,0
43.46412,,-80.484247,2445,EasyGO2445,Lancaster / Hill,0
43.45983,,-80.486818,2448,EasyGO2448,Wellington / St. Leger,0
43.458697,,-80.490313,2449,EasyGO2449,Wellington / Margaret,0
43.499703,,-80.537457,2046,EasyGO2046,Conestogo / Colby,0
43.498483,,-80.536587,2047,EasyGO2047,Conestogo / Durward,0
43.51014,,-80.519108,2044,EasyGO2044,Bridge / Labrador,0
43.489672,,-80.527735,2045,EasyGO2045,King / Waterloo Inn,0
43.505628,,-80.510583,2042,EasyGO2042,Bridge / Chesapeake,0
43.504567,,-80.50592,2040,EasyGO2040,Eastbridge / Mayflower,0
43.504167,,-80.50841,2041,EasyGO2041,Eastbridge / Acadia,0
43.495753,,-80.532875,2048,EasyGO2048,483 Conestogo Rd. W.,0
43.496408,,-80.531728,2049,EasyGO2049,Conestogo / Bauer,0
43.471145,,-80.51389,2835,EasyGO2835,Weber / Lincoln,0
43.402215,,-80.346653,3519,EasyGO3519,Concession / Trico,0
43.4006887,,-80.33107629,3518,EasyGO3518,Industrial / Langs,0
43.429465,,-80.304333,3513,EasyGO3513,Rife / Bella,0
43.429685,,-80.288827,3512,EasyGO3512,Kerwood / Ellis,0
43.427642,,-80.318508,3511,EasyGO3511,Queen / Winston,0
43.421238,,-80.313745,3510,EasyGO3510,Winston / Heather,0
43.391123,,-80.319857,3517,EasyGO3517,Cambridge Ctr. Terminal,0
43.411617,,-80.307628,3514,EasyGO3514,Pinebush / Franklin,0
43.454479,,-80.520774,2688,EasyGO2688,Union / Earl,0
43.454901,,-80.519047,2689,EasyGO2689,Belmont / Union,0
43.454347,,-80.52766,2685,EasyGO2685,Westmount / John,0
43.452182,,-80.524937,2686,EasyGO2686,Union / Westmount,0
43.453229,,-80.522523,2687,EasyGO2687,Union / Dunbar,0
43.459042,,-80.536837,2680,EasyGO2680,Westmount / Erb,0
43.457612,,-80.53533,2681,EasyGO2681,Westmount / Lourdes,0
43.456923,,-80.53224,2682,EasyGO2682,Westmount / Dietz,0
43.45566529,,-80.52906819,2683,EasyGO2683,Westmount / William,0
43.400075,,-80.362027,1436,EasyGO1436,Eagle / William,0
43.398303,,-80.363702,1437,EasyGO1437,Eagle / King,0
43.466694,,-80.586075,3392,EasyGO3392,Erbsville / White Elm,0
43.398698,,-80.345453,1433,EasyGO1433,Concession / Winterhalt,0
43.446045,,-80.553957,1991,EasyGO1991,Thorndale / Appledale,0
43.428273,,-80.544327,3206,EasyGO3206,Westforest / Westmeadow,0
43.388777,,-80.344222,1621,EasyGO1621,King / Brower,0
43.387912,,-80.342513,1620,EasyGO1620,King / Concession,0
43.399072,,-80.364283,1627,EasyGO1627,King / Chopin,0
43.430645,,-80.533965,3202,EasyGO3202,Bankside / Golden Terrace,0
43.394625,,-80.355777,1625,EasyGO1625,King / Lowther,0
43.393177,,-80.352915,1624,EasyGO1624,King / Dolph,0
43.45949,,-80.536275,1999,EasyGO1999,Erb / Westmount,0
43.456555,,-80.541867,1998,EasyGO1998,Erb / Mcdougall,0
43.396142,,-80.372962,1629,EasyGO1629,Fountain / Bauman,0
43.399956,,-80.368,1628,EasyGO1628,King / Fountain,0
43.434542,,-80.534373,3209,EasyGO3209,Path To Wexford,0
43.43357,,-80.538688,3208,EasyGO3208,Victoria / Eastforest,0
43.435892,,-80.447073,2860,EasyGO2860,Franklin / Prospect,0
43.431922,,-80.438915,2861,EasyGO2861,Weber / Kinzie,0
43.429262,,-80.43487,2862,EasyGO2862,King / Kingsbury,0
43.425355,,-80.490287,2863,EasyGO2863,G.R.T. Strasburg Garage,0
43.424732,,-80.495277,2864,EasyGO2864,Chandler / Bonfield,0
43.423855,,-80.496687,2865,EasyGO2865,Elmsdale / Chandler,0
43.42201,,-80.49421,2866,EasyGO2866,Elmsdale / Ottawa,0
43.42122,,-80.497252,2867,EasyGO2867,Ottawa / Howland,0
43.420673,,-80.500573,2868,EasyGO2868,Path To Chandler,0
43.420357,,-80.50258,2869,EasyGO2869,Ottawa / Westmount,0
43.496233,,-80.548257,1199,EasyGO1199,Northfield / Weber,0
43.49565116,,-80.54970194,1198,EasyGO1198,Northfield / Weber,0
43.433163,,-80.510683,3348,EasyGO3348,Queens / Westmount,0
43.43406,,-80.508183,3349,EasyGO3349,Queens / Blueridge,0
43.491093,,-80.564262,1191,EasyGO1191,Highpoint / Northfield,0
43.48914,,-80.562982,1190,EasyGO1190,Highpoint / Rolling Hills,0
43.493622,,-80.563955,1193,EasyGO1193,Northlake / Highpoint,0
43.493208,,-80.564582,1192,EasyGO1192,Highpoint / Cornerbrook,0
43.494148,,-80.556752,1195,EasyGO1195,Northlake / Skylark,0
43.494712,,-80.559533,1194,EasyGO1194,Northlake / Green Meadow,0
43.494357,,-80.553547,1197,EasyGO1197,Northfield / Northgate,0
43.493527,,-80.555927,1196,EasyGO1196,Northfield / Skylark,0
43.40878,,-80.443455,1759,EasyGO1759,Wabanaki / Kevco,0
43.406957,,-80.448535,1758,EasyGO1758,Manitou / Wabanaki,0
43.405483,,-80.448345,1757,EasyGO1757,334 Manitou Dr.,0
43.40185,,-80.447687,1756,EasyGO1756,Manitou / Cayuga,0
43.398292,,-80.446698,1755,EasyGO1755,Doon Village / Farrier,0
43.393583,,-80.443617,1754,EasyGO1754,Doon Village / Wheatfield Park,0
43.391897,,-80.440588,1753,EasyGO1753,Doon Village / Bechtel,0
43.389998,,-80.444377,1752,EasyGO1752,Bechtel / Anvil,0
43.389137,,-80.448528,1751,EasyGO1751,Bechtel / Sabrina,0
43.391645,,-80.450683,1750,EasyGO1750,Pioneer / Black Walnut,0
43.490542,,-80.539163,1177,EasyGO1177,Albert / Longwood,0
43.48815,,-80.541385,1176,EasyGO1176,Albert / Greenbrier,0
43.485738,,-80.539433,1175,EasyGO1175,Hazel / Albert,0
43.485675,,-80.537293,1174,EasyGO1174,Hazel / Blythwood,0
43.483773,,-80.535095,1173,EasyGO1173,Hazel / Smallwood,0
43.481543,,-80.532912,1172,EasyGO1172,Hazel / Austin,0
43.479566,,-80.531347,1171,EasyGO1171,Waterloo C.I.,0
43.478533,,-80.530555,1170,EasyGO1170,Waterloo C.I. 1,0
43.49266,,-80.544787,1179,EasyGO1179,Parkside / Weber,0
43.492042,,-80.537633,1178,EasyGO1178,Weber / Albert,0
43.403585,,-80.35481,1284,EasyGO1284,Eagle / Hexam,0
43.404093,,-80.351697,1283,EasyGO1283,Eagle / Shettleston,0
43.40467,,-80.348197,1282,EasyGO1282,Eagle / Concession,0
43.40332,,-80.35546,1289,EasyGO1289,Laurel / Eagle,0
43.394808,,-80.37774,1579,EasyGO1579,Preston / Hillview,0
43.396447,,-80.377657,1578,EasyGO1578,Preston / Parkview,0
43.407827,,-80.391363,1573,EasyGO1573,Gateway Park / Sportsworld,0
43.40898556,,-80.3938566,1571,EasyGO1571,Sportsworld Crossing,0
43.40922684,,-80.39381845,1570,EasyGO1570,Sportsworld Crossing,0
43.39853,,-80.377978,1577,EasyGO1577,Preston / Kiwanis Village,0
43.399365,,-80.376857,1576,EasyGO1576,Preston / Linden,0
43.399647,,-80.375538,1575,EasyGO1575,Shantz Hill / Preston Pkwy.,0
43.406267,,-80.38917,1574,EasyGO1574,Tu Lane / Gateway Park,0
43.438698,,-80.298918,1240,EasyGO1240,Melran / Mccormick,0
43.436943,,-80.293683,1243,EasyGO1243,Mcmeeken / Mccormick,0
43.504595,,-80.496582,2035,EasyGO2035,University / Lexington,0
43.38885,,-80.28531,1371,EasyGO1371,Burnett / Mctague,0
43.386238,,-80.288258,1370,EasyGO1370,Burnett / Chimney Hill,0
43.390437,,-80.29201,1373,EasyGO1373,Saginaw / Stonecairn,0
43.389898,,-80.2883,1372,EasyGO1372,Saginaw / Fairgreen,0
43.391526,,-80.300126,1375,EasyGO1375,St Benedict C.S.S. 4,0
43.38973,,-80.296317,1374,EasyGO1374,Saginaw / Cowan,0
43.39165,,-80.300673,1377,EasyGO1377,St Benedict C.S.S. 1,0
43.391573,,-80.300315,1376,EasyGO1376,St Benedict C.S.S. 3,0
43.391123,,-80.30861,1379,EasyGO1379,Elgin / Bushnell,0
43.39139,,-80.302953,1378,EasyGO1378,Elgin / Franklin,0
43.500373,,-80.500822,2032,EasyGO2032,Meadowvale / Lexington,0
43.5102,,-80.5495,3834,EasyGO3834,Farmers Market / Walmart,0
43.3915,,-80.3441,3835,EasyGO3835,Bishop / Pineview,0
43.5159,,-80.5573,3836,EasyGO3836,King / Lobsinger,0
43.554798,,-80.555367,3837,EasyGO3837,Arthur / Gerrat,0
43.5377,,-80.5539,3830,EasyGO3830,King / Cedar,0
43.5319,,-80.5549,3831,EasyGO3831,King / Henry,0
43.5284,,-80.5554,3832,EasyGO3832,King / Printery,0
43.5099,,-80.5558,3833,EasyGO3833,Farmers Market / Benjamin,0
43.498052,,-80.499417,2030,EasyGO2030,Dansbury / Canterbury,0
43.5671,,-80.5613,3838,EasyGO3838,Arthur / Scotch Line,0
43.5671,,-80.5615,3839,EasyGO3839,Arthur / Scotch Line,0
43.429097,,-80.289172,1245,EasyGO1245,Ellis / Kerwood,0
43.430943,,-80.293117,1244,EasyGO1244,Kerwood / Gees,0
43.447772,,-80.559623,1987,EasyGO1987,Westvale / Foxhill,0
43.45979759,,-80.50290472,2309,EasyGO2309,Waterloo / Guelph,0
43.387473,,-80.411953,2308,EasyGO2308,Homer Watson,0
43.35629,,-80.300775,2301,EasyGO2301,Main / Lowrey,0
43.356033,,-80.298927,2300,EasyGO2300,Chalmers / Main,0
43.356812,,-80.30622,2303,EasyGO2303,Main / Arthur White,0
43.356538,,-80.303102,2302,EasyGO2302,Main / Cathay,0
43.46115572,,-80.50451466,2305,EasyGO2305,Waterloo / Peltz,0
43.357148,,-80.307967,2304,EasyGO2304,Main / Spruce,0
43.46103138,,-80.5045196,2307,EasyGO2307,Waterloo / Peltz,0
43.46141455,,-80.50917914,2306,EasyGO2306,Moore / Roger,0
43.428063,,-80.295037,1246,EasyGO1246,Ellis / Cooper,0
43.49,,-80.5169,3748,EasyGO3748,Lexington / Dearborn Blvd.,0
43.498,,-80.505,3749,EasyGO3749,Lexington / Bridge,0
43.3937,,-80.4367,3746,EasyGO3746,Pioneer / Bechtel,0
43.4843,,-80.5197,3747,EasyGO3747,Columbia / Marsland,0
43.4571,,-80.495,3744,EasyGO3744,Wellington / Weber,0
43.4914,,-80.578,3745,EasyGO3745,Conservation / Waterton,0
43.4093,,-80.3732,3742,EasyGO3742,Fountain /Comdev Soccer Dome,0
43.4611,,-80.5219,3743,EasyGO3743,William / Caroline,0
43.3867,,-80.475,3740,EasyGO3740,Huron / Cranshaw,0
43.3889,,-80.4718,3741,EasyGO3741,Huron / Newcastle,0
43.347993,,-80.304617,2275,EasyGO2275,Glenview / Mcdonald,0
43.347808,,-80.306497,2274,EasyGO2274,Mckay / Glenview,0
43.346242,,-80.299985,2277,EasyGO2277,Champlain / Christopher,0
43.346405,,-80.303265,2276,EasyGO2276,Mcdonald / Dorset,0
43.350275,,-80.302827,2271,EasyGO2271,Ballantyne / East,0
43.352072,,-80.301957,2270,EasyGO2270,Christopher / South,0
43.349588,,-80.306918,2273,EasyGO2273,Ballantyne / Mckay,0
43.349923,,-80.304908,2272,EasyGO2272,Ballantyne / Mcdonald,0
43.341327,,-80.300928,2279,EasyGO2279,Christopher / Myers,0
43.343818,,-80.300958,2278,EasyGO2278,Christopher / Tutton,0
43.469538,,-80.447385,2337,EasyGO2337,1373 Victoria St.,0
43.453283,,-80.490448,2459,EasyGO2459,Weber / Young,0
43.45116,,-80.4929,2458,EasyGO2458,King / Gaukel,0
43.453817,,-80.50143,2455,EasyGO2455,King / Breithaupt,0
43.454508,,-80.502919,2454,EasyGO2454,Wellington / King,0
43.451736,,-80.494754,2457,EasyGO2457,King / Water,0
43.452887,,-80.498582,2456,EasyGO2456,King / Victoria,0
43.456577,,-80.496683,2451,EasyGO2451,Wellington / Duke,0
43.4578,,-80.49296,2450,EasyGO2450,Wellington / Ahrens,0
43.455098,,-80.501085,2453,EasyGO2453,Wellington / Moore,0
43.455805,,-80.498992,2452,EasyGO2452,Wellington / Waterloo,0
43.498617,,-80.53218,2051,EasyGO2051,Conestogo / King,0
43.498554,,-80.532046,2050,EasyGO2050,Conestogo / King,0
43.496668,,-80.535205,2053,EasyGO2053,530 Conestogo Rd.,0
43.495837,,-80.532947,2052,EasyGO2052,Conestogo / Bauer,0
43.499713,,-80.537278,2055,EasyGO2055,Conestogo / Northfield,0
43.498572,,-80.536503,2054,EasyGO2054,Conestogo / Durward,0
43.4509,,-80.5721,3690,EasyGO3690,Erbsville / Royal Beech,0
43.4533,,-80.5719,3691,EasyGO3691,Path To Erbsville,0
43.4558,,-80.5732,3692,EasyGO3692,Keats Way / Keatswood,0
43.4565,,-80.5711,3693,EasyGO3693,Keats Way /  Beechwood,0
43.4575,,-80.5682,3694,EasyGO3694,Keats Way / Leighland,0
43.4567,,-80.5649,3695,EasyGO3695,Keats Way / Brynhurst,0
43.4907,,-80.5813,3697,EasyGO3697,Lake Louise / Kelso,0
43.357147,,-80.293797,1506,EasyGO1506,Main / Alexander,0
43.356593,,-80.296798,1507,EasyGO1507,Main / Elgin,0
43.39945,,-80.354483,3526,EasyGO3526,Westminster / Laurel,0
43.379983,,-80.319342,3527,EasyGO3527,Hespeler / Abbotsford,0
43.386152,,-80.389268,3524,EasyGO3524,Fountain / Blair,0
43.385395,,-80.39139,3525,EasyGO3525,Fountain / Blair,0
43.400862,,-80.354707,3522,EasyGO3522,Laurel / North,0
43.393222,,-80.367597,3520,EasyGO3520,Dover / Rose,0
43.390792,,-80.363468,3521,EasyGO3521,Rose / Westminster,0
43.355848,,-80.301208,1508,EasyGO1508,Concession / Scrimger,0
43.384015,,-80.303455,1364,EasyGO1364,Glamis / The Greenway,0
43.355378,,-80.304092,1509,EasyGO1509,Concession / Peck,0
43.370457,,-80.313927,1601,EasyGO1601,Dundas / Hopeton,0
43.440148,,-80.508363,2699,EasyGO2699,Belmont / Burn,0
43.372232,,-80.316883,1600,EasyGO1600,Dundas / Haddington,0
43.442205,,-80.51075,2697,EasyGO2697,Belmont / Edgewood,0
43.443235,,-80.512007,2696,EasyGO2696,Belmont / Victoria,0
43.445037,,-80.512965,2695,EasyGO2695,Belmont / Karn,0
43.447603,,-80.514288,2694,EasyGO2694,Belmont / Gage,0
43.449407,,-80.515485,2693,EasyGO2693,551 Belmont Ave.,0
43.3659,,-80.3063,1603,EasyGO1603,Dundas / Beverly,0
43.385225,,-80.301457,1365,EasyGO1365,Glamis / Franklin,0
43.3674,,-80.3089,1602,EasyGO1602,Dundas / Cambridge,0
43.359238,,-80.31141,1605,EasyGO1605,Wellington / Main,0
43.363,,-80.3089,1604,EasyGO1604,Beverly / Kerr,0
43.364605,,-80.307198,1607,EasyGO1607,Beverly / Mill Creek Trail,0
43.36199,,-80.309622,1606,EasyGO1606,Beverly / Kerr,0
43.38111,,-80.307262,1362,EasyGO1362,Elgin / Glamis,0
43.45484,,-80.501108,3230,EasyGO3230,Moore / Wellington,0
43.45653,,-80.502163,3231,EasyGO3231,Moore / Shanley,0
43.456514,,-80.542359,1968,EasyGO1968,Erb / Mulberry,0
43.455717,,-80.544418,1969,EasyGO1969,Erb / Amos,0
43.38386,,-80.335978,1618,EasyGO1618,Coronation / Blue Heron,0
43.385793,,-80.338892,1619,EasyGO1619,Coronation / Oriole,0
43.38102377,,-80.33117177,1616,EasyGO1616,697 Coronation Blvd.,0
43.382493,,-80.333703,1617,EasyGO1617,Coronation / Highland,0
43.378152,,-80.326393,1614,EasyGO1614,Coronation / Oliver,0
43.458883,,-80.515292,3239,EasyGO3239,Union / King,0
43.463747,,-80.524582,1960,EasyGO1960,Caroline / Erb,0
43.46414,,-80.525997,1961,EasyGO1961,Erb / Father David Bauer,0
43.370595,,-80.313938,1610,EasyGO1610,Dundas / Roxboro,0
43.372242,,-80.316608,1611,EasyGO1611,Dundas / Jarvis,0
43.381787,,-80.304962,1363,EasyGO1363,Glamis / Carter,0
43.414648,,-80.503563,2873,EasyGO2873,Williamsburg / Dinison,0
43.416247,,-80.505322,2872,EasyGO2872,Williamsburg / Pinedale,0
43.418562,,-80.507933,2871,EasyGO2871,Williamsburg / Ottawa,0
43.419653,,-80.506583,2870,EasyGO2870,Ottawa / Howe,0
43.415867,,-80.496163,2877,EasyGO2877,Dunsmere / Colebrook,0
43.414675,,-80.498168,2876,EasyGO2876,Dunsmere / Radcliffe,0
43.41426,,-80.499869,2875,EasyGO2875,Dunsmere / Bosworth,0
43.41327,,-80.502035,2874,EasyGO2874,Williamsburg / Dinison,0
43.414867,,-80.492465,2879,EasyGO2879,Laurentian / Briar Knoll,0
43.416309,,-80.493656,2878,EasyGO2878,Dunsmere / Laurentian,0
43.440595,,-80.498447,3355,EasyGO3355,Queens / Highland,0
43.439347,,-80.499678,3354,EasyGO3354,Queens / Spadina,0
43.438092,,-80.510585,3357,EasyGO3357,Highland / Lawrence,0
43.439443,,-80.508153,3356,EasyGO3356,Highland / Belmont,0
43.43633,,-80.503788,3351,EasyGO3351,Queens / Belmont,0
43.435197,,-80.505828,3350,EasyGO3350,Queens / Community Trail,0
43.437675,,-80.500898,3353,EasyGO3353,Queens / St. Marys Hospital,0
43.437062,,-80.502088,3352,EasyGO3352,Queens / South,0
43.426763,,-80.529348,3359,EasyGO3359,Queens / Westheights,0
43.43639,,-80.513563,3358,EasyGO3358,Highland / Westmount,0
43.5091,,-80.5173,3781,EasyGO3781,Chesapeake / Brigantine,0
43.414458,,-80.479017,1768,EasyGO1768,Forest Glen Terminal,0
43.414385,,-80.478892,1769,EasyGO1769,Forest Glen Terminal,0
43.382662,,-80.309812,1361,EasyGO1361,Elgin / Regal,0
43.413472,,-80.442312,1762,EasyGO1762,Wilson /Kuntz Electroplating,0
43.415405,,-80.44227,1763,EasyGO1763,Wilson / Goodrich,0
43.409265,,-80.441278,1760,EasyGO1760,Wabanaki / Wilson,0
43.410893,,-80.441718,1761,EasyGO1761,Wilson / Wabanaki,0
43.414117,,-80.478895,1766,EasyGO1766,Forest Glen Terminal,0
43.414263,,-80.478952,1767,EasyGO1767,Forest Glen Terminal,0
43.420792,,-80.442552,1764,EasyGO1764,Wilson / Fairway,0
43.41392,,-80.478842,1765,EasyGO1765,Forest Glen Terminal,0
43.493252,,-80.564747,1142,EasyGO1142,Highpoint / Cornerbrook,0
43.491195,,-80.564522,1143,EasyGO1143,Highpoint / Wintergreen,0
43.49483,,-80.559548,1140,EasyGO1140,Northlake / Green Meadow,0
43.493962,,-80.562523,1141,EasyGO1141,Northlake / Pine Island,0
43.484945,,-80.559987,1146,EasyGO1146,Highpoint / Toll Gate,0
43.487193,,-80.556668,1147,EasyGO1147,Toll Gate / Glen Forrest,0
43.488437,,-80.563307,1144,EasyGO1144,Highpoint / Rolling Hills,0
43.48682,,-80.563315,1145,EasyGO1145,Highpoint / Dogwood,0
43.486143,,-80.553573,1148,EasyGO1148,Glen Forrest / Teakwood,0
43.48567,,-80.55156,1149,EasyGO1149,Cedarbrae / Glen Forrest,0
43.41026,,-80.510513,2966,EasyGO2966,Wilderness / Activa,0
43.498,,-80.4944,3787,EasyGO3787,Dansbury / Forestlawn,0
43.403633,,-80.305995,1546,EasyGO1546,Franklin / Turnbull,0
43.405675,,-80.306625,1547,EasyGO1547,Franklin / Sheldon,0
43.39893,,-80.304452,1544,EasyGO1544,Franklin / Bishop,0
43.40122,,-80.305217,1545,EasyGO1545,Franklin / Raglin,0
43.392358,,-80.302303,1542,EasyGO1542,Franklin / Saginaw,0
43.396343,,-80.303648,1543,EasyGO1543,Franklin / Lindsay,0
43.381108,,-80.29918,1540,EasyGO1540,Franklin / Avenue,0
43.385247,,-80.300802,1541,EasyGO1541,Franklin / Robson,0
43.407877,,-80.307348,1548,EasyGO1548,Franklin / Stafford,0
43.410413,,-80.30808,1549,EasyGO1549,Franklin / Pinebush,0
43.4981,,-80.5036,3784,EasyGO3784,Bridge / Lexington,0
43.399795,,-80.473807,1784,EasyGO1784,Trillium / Mcbrine,0
43.400977,,-80.468495,1785,EasyGO1785,Trillium / Strasburg,0
43.402248,,-80.463315,1787,EasyGO1787,Trillium / Adam Ferrie,0
43.391406,,-80.319366,1388,EasyGO1388,Cambridge Centre Terminal,0
43.39136,,-80.319659,1389,EasyGO1389,Cambridge Centre Terminal,0
43.383328,,-80.32022,1384,EasyGO1384,Hespeler / Munch,0
43.391227,,-80.319608,1385,EasyGO1385,Cambridge Centre Terminal,0
43.391255,,-80.31942,1386,EasyGO1386,Cambridge Centre Terminal,0
43.391296,,-80.319152,1387,EasyGO1387,Cambridge Centre Terminal,0
43.388972,,-80.311752,1380,EasyGO1380,Elgin / Glenbrook,0
43.386723,,-80.313593,1381,EasyGO1381,Elgin / Sekura,0
43.384022,,-80.313643,1382,EasyGO1382,Munch / Kovac,0
43.383192,,-80.317802,1383,EasyGO1383,Munch / Sekura,0
43.5773,,-80.5632,3827,EasyGO3827,Arthur / Union,0
43.58078254,,-80.56278738,3826,EasyGO3826,Arthur / South Parkwood,0
43.5845,,-80.5623,3825,EasyGO3825,Arthur / South Field,0
43.5894,,-80.5615,3824,EasyGO3824,Arthur / Howard,0
43.5923,,-80.5634,3823,EasyGO3823,First / Snyder,0
43.5934,,-80.5642,3822,EasyGO3822,Snyder / Second,0
43.5952453,,-80.56395574,3821,EasyGO3821,Snyder / Brubacher,0
43.5969,,-80.5637,3820,EasyGO3820,Snyder / South,0
43.5406,,-80.5534,3829,EasyGO3829,King / Front,0
43.5441,,-80.5491,3828,EasyGO3828,Sawmill / Parkside,0
43.44357,,-80.512032,2762,EasyGO2762,Belmont / Victoria,0
43.442303,,-80.51066,2761,EasyGO2761,Belmont / Jack,0
43.47439,,-80.532259,5008,EasyGO5008,Albert / University,0
43.478062,,-80.484493,1945,EasyGO1945,Lancaster / Lang,0
43.383328,,-80.29228,1369,EasyGO1369,Burnett / Buchanan,0
43.461177,,-80.46435,1077,EasyGO1077,Frederick / Lois,0
43.5076,,-80.5266,3759,EasyGO3759,Frobisher / Mcmurray,0
43.5102,,-80.5244,3758,EasyGO3758,Frobisher / Superior,0
43.5078,,-80.4974,3751,EasyGO3751,University / Woolwich Pl.,0
43.5108,,-80.4975,3750,EasyGO3750,University / New Bedford,0
43.5189,,-80.5087,3753,EasyGO3753,University / Country Squire,0
43.518,,-80.5028,3752,EasyGO3752,University / R.I.M. Park,0
43.5146,,-80.5195,3755,EasyGO3755,Northfield / Toman,0
43.5172,,-80.5179,3754,EasyGO3754,Northfield / University,0
43.5119,,-80.5233,3757,EasyGO3757,Frobisher / Bridge,0
43.5119,,-80.5213,3756,EasyGO3756,Northfield / Bridge,0
43.366572,,-80.320853,2190,EasyGO2190,George / James,0
43.368322,,-80.324853,2191,EasyGO2191,Sunset / Saxony,0
43.370475,,-80.326118,2192,EasyGO2192,Sunset / Bismark,0
43.37258,,-80.327552,2193,EasyGO2193,Sunset / Blair Road P.S.,0
43.373758,,-80.330522,2194,EasyGO2194,Sunset / Clearview,0
43.372443,,-80.33362,2195,EasyGO2195,Clearview / Blair,0
43.370847,,-80.332097,2196,EasyGO2196,Blair / Bismark,0
43.369503,,-80.330407,2197,EasyGO2197,Blair / Kenmore,0
43.367765,,-80.32828,2198,EasyGO2198,Blair / Sherwood,0
43.366732,,-80.327037,2199,EasyGO2199,Blair / Grant,0
43.363907,,-80.322992,2200,EasyGO2200,Blair / James,0
43.361612,,-80.32138,2201,EasyGO2201,Blenheim / Lansdowne,0
43.361587,,-80.325605,2202,EasyGO2202,Blenheim / Vair,0
43.359542,,-80.332065,2203,EasyGO2203,Parkwood / Blenheim,0
43.357222,,-80.332275,2204,EasyGO2204,Salisbury / Corwin,0
43.356268,,-80.333147,2205,EasyGO2205,Hillcrest / Highland,0
43.353757,,-80.332297,2206,EasyGO2206,Hillcrest / Churchill,0
43.35389,,-80.330515,2207,EasyGO2207,Churchill / Westgate,0
43.354722,,-80.326698,2208,EasyGO2208,Churchill / Forest,0
43.354715,,-80.325333,2209,EasyGO2209,Churchill / Barrie,0
43.478127,,-80.471872,2428,EasyGO2428,Bridge / Tagge,0
43.4777,,-80.466575,2429,EasyGO2429,Stanley / Schueller,0
43.467846,,-80.484189,2420,EasyGO2420,Lancaster / Arnold,0
43.469186,,-80.484229,2421,EasyGO2421,Lancaster / Ash,0
43.47109,,-80.484275,2422,EasyGO2422,Lancaster / Union,0
43.47526,,-80.484337,2423,EasyGO2423,Lancaster / Hamel,0
43.481807,,-80.48285,2424,EasyGO2424,Lancaster / Bridge,0
43.481207,,-80.480298,2425,EasyGO2425,Bridge / Tyson,0
43.480457,,-80.478282,2426,EasyGO2426,Bridge / Bloomingdale,0
43.478953,,-80.474195,2427,EasyGO2427,Bridge / Schweitzer,0
43.448,,-80.5725,3689,EasyGO3689,Erbsville / Erb,0
43.4689,,-80.5391,3683,EasyGO3683,University / Seagram,0
43.4752,,-80.5282,3682,EasyGO3682,Hazel / University,0
43.4895,,-80.4943,3681,EasyGO3681,Bridge / University,0
43.4921,,-80.4971,3680,EasyGO3680,Bridge / Crimson,0
43.4479,,-80.5726,3685,EasyGO3685,Erbsville / Erb,0
43.472737,,-80.547978,2518,EasyGO2518,U.W. - University Club,0
43.473932,,-80.546227,2519,EasyGO2519,U.W. - B.C. Matthews Hall,0
43.451332,,-80.572178,1980,EasyGO1980,Erbsville / Brandenburg,0
43.477972,,-80.537435,2514,EasyGO2514,Columbia / Lester,0
43.4686,,-80.540275,2515,EasyGO2515,U.W. - South Campus Hall,0
43.467795,,-80.543577,2516,EasyGO2516,U.W. - Environment 2,0
43.46971,,-80.54408,2517,EasyGO2517,U.W. - Biology 2,0
43.481632,,-80.527198,2510,EasyGO2510,Columbia / Spruce,0
43.480703,,-80.529687,2511,EasyGO2511,Columbia / Holly,0
43.479797,,-80.532193,2512,EasyGO2512,Columbia / Hazel,0
43.478785,,-80.535027,2513,EasyGO2513,Columbia / Albert,0
43.422137,,-80.449348,2734,EasyGO2734,Traynor / Balfour,0
43.423595,,-80.447118,2735,EasyGO2735,Traynor / Wilson,0
43.422207,,-80.449305,2736,EasyGO2736,Traynor / Balfour,0
43.421325,,-80.452087,2737,EasyGO2737,Traynor / Belwood,0
43.423793,,-80.458998,2730,EasyGO2730,Vanier / Shelley,0
43.4217,,-80.456727,2731,EasyGO2731,Vanier / Siebert,0
43.420568,,-80.454853,2732,EasyGO2732,Traynor / Vanier,0
43.421303,,-80.451867,2733,EasyGO2733,Traynor / Belwood,0
43.420688,,-80.45485,2738,EasyGO2738,Traynor / Vanier,0
43.421843,,-80.45676,2739,EasyGO2739,Vanier / Siebert,0
43.421942,,-80.38379,3531,EasyGO3531,Maple Grove / Saltsman,0
43.465173,,-80.584187,1106,EasyGO1106,Erbsville / Willowwood,0
43.389377,,-80.360732,3532,EasyGO3532,Rose / Lowther,0
43.358803,,-80.310165,3535,EasyGO3535,Main / Harris,0
43.353643,,-80.322523,3534,EasyGO3534,St. Andrews / Gilholm,0
43.386303,,-80.32104,3537,EasyGO3537,Hespeler / Can-Amera,0
43.359972,,-80.311453,3536,EasyGO3536,Wellington / Dickson,0
43.383093,,-80.32048,3539,EasyGO3539,Hespeler / Isherwood,0
43.386365,,-80.321347,3538,EasyGO3538,Hespeler / Can-Amera,0
43.389415,,-80.456202,1814,EasyGO1814,Biehn / Kilkerran,0
43.38639,,-80.456198,1815,EasyGO1815,Biehn / Kilkerran,0
43.385542,,-80.458825,1816,EasyGO1816,End Of Biehn Dr.,0
43.386713,,-80.455763,1817,EasyGO1817,Biehn / Caryndale,0
43.39721,,-80.457932,1810,EasyGO1810,Old Huron / Maxwell,0
43.396023,,-80.4555,1811,EasyGO1811,Biehn / Carlyle,0
43.3944,,-80.455552,1812,EasyGO1812,Biehn / Maxwell,0
43.392182,,-80.455908,1813,EasyGO1813,Biehn / Marl Meadow,0
43.389403,,-80.456042,1818,EasyGO1818,Biehn / Robertson,0
43.391372,,-80.455957,1819,EasyGO1819,Biehn / Marl Meadow,0
43.471462,,-80.592458,1107,EasyGO1107,Laurelwood / Erbsville,0
43.367545,,-80.308725,1609,EasyGO1609,Dundas / Cambridge,0
43.366263,,-80.306508,1608,EasyGO1608,Dundas / Grantham,0
43.42294,,-80.487324,3229,EasyGO3229,Ottawa / Strasburg,0
43.422984,,-80.441007,3228,EasyGO3228,Fairview Park Terminal,0
43.452757,,-80.57191,1979,EasyGO1979,Path To Lausanne,0
43.455908,,-80.573273,1978,EasyGO1978,Keats Way / Erbsville,0
43.4567,,-80.571037,1977,EasyGO1977,Keats Way / Beechwood,0
43.457638,,-80.568322,1976,EasyGO1976,Keats Way / Leighland,0
43.456957,,-80.564897,1975,EasyGO1975,Keats Way / Sandford Fleming,0
43.452625,,-80.49812,3226,EasyGO3226,Victoria / King,0
43.457883,,-80.55867,1973,EasyGO1973,Keats Way / Fischer-Hallman,0
43.45291,,-80.553685,1972,EasyGO1972,Fischer-Hallman / Erb,0
43.453375,,-80.551127,1971,EasyGO1971,Erb / Churchill,0
43.454637,,-80.547535,1970,EasyGO1970,Erb / Culpepper,0
43.445132,,-80.469868,2848,EasyGO2848,Weber / Onward,0
43.444737,,-80.465332,2849,EasyGO2849,Ottawa / Mckenzie,0
43.446412,,-80.475312,2846,EasyGO2846,Weber / Stirling,0
43.445533,,-80.470935,2847,EasyGO2847,Weber / Borden,0
43.448518,,-80.480057,2844,EasyGO2844,Weber / Madison,0
43.446963,,-80.476525,2845,EasyGO2845,Weber / Fairview,0
43.451397,,-80.48633,2842,EasyGO2842,Weber / Frederick,0
43.44908,,-80.481287,2843,EasyGO2843,Weber / Cedar,0
43.455962,,-80.488827,2840,EasyGO2840,Margaret / Victoria,0
43.454545,,-80.48566,2841,EasyGO2841,Margaret / Queen,0
43.417872,,-80.534615,3320,EasyGO3320,Driftwood / Westheights,0
43.416212,,-80.534271,3321,EasyGO3321,Driftwood / Royal Orchard,0
43.413483,,-80.535675,3322,EasyGO3322,Driftwood / Parkland,0
43.412305,,-80.537833,3323,EasyGO3323,Driftwood / Driftwood Pk.,0
43.413208,,-80.539873,3324,EasyGO3324,Yellow Birch / Driftwood,0
43.411948,,-80.542053,3325,EasyGO3325,Yellow Birch / Cedar Crest,0
43.4114,,-80.545153,3326,EasyGO3326,Yellow Birch / Stonehenge,0
43.412363,,-80.549067,3327,EasyGO3327,Yellow Birch / Golden Meadow,0
43.415237,,-80.550615,3328,EasyGO3328,Golden Meadow / Highview,0
43.415675,,-80.54721,3329,EasyGO3329,Highview / Sugar Maple,0
43.406412,,-80.47482,1775,EasyGO1775,Strasburg / Bleams,0
43.407405,,-80.475148,1774,EasyGO1774,Strasburg / Bleams,0
43.404475,,-80.474385,1777,EasyGO1777,Mcintyre / Strasburg,0
43.405623,,-80.474402,1776,EasyGO1776,Strasburg / Shoemaker,0
43.414052,,-80.478805,1771,EasyGO1771,Forest Glen Terminal,0
43.414213,,-80.47885,1770,EasyGO1770,Forest Glen Terminal,0
43.410878,,-80.476208,1773,EasyGO1773,Strasburg / Old Country,0
43.41389,,-80.47875,1772,EasyGO1772,Forest Glen Terminal,0
43.402877,,-80.480323,1779,EasyGO1779,222 Mcintyre Dr.,0
43.403002,,-80.477342,1778,EasyGO1778,Mcintyre / Mcbrine,0
43.496873,,-80.515888,2806,EasyGO2806,Path To Anndale,0
43.402057,,-80.51224,2998,EasyGO2998,Activa / Periwinkle,0
43.485792,,-80.537551,1159,EasyGO1159,Hazel / Blythwood,0
43.485729,,-80.539087,1158,EasyGO1158,Hazel / Wildwood,0
43.417307,,-80.310245,1550,EasyGO1550,Franklin / Holiday Inn,0
43.491555,,-80.537553,1155,EasyGO1155,Albert / Weber,0
43.492592,,-80.544622,1154,EasyGO1154,Parkside / Weber,0
43.487638,,-80.541565,1157,EasyGO1157,Albert / Quiet,0
43.490535,,-80.539497,1156,EasyGO1156,Albert / Longwood,0
43.4879488,,-80.55008486,1150,EasyGO1150,Cedarbrae/Heasley Pk. Trail,0
43.490203,,-80.545167,1153,EasyGO1153,Parkside / Glenelm,0
43.489614,,-80.54806,1152,EasyGO1152,Cedarbrae / Sprucehill,0
43.497722,,-80.518018,2807,EasyGO2807,Davenport / Kidsability,0
43.411707,,-80.473785,3038,EasyGO3038,Old Country / Century Hill,0
43.411113,,-80.471162,3039,EasyGO3039,Path To Sandsprings,0
43.423214,,-80.441326,1551,EasyGO1551,Fairview Park Terminal,0
43.402567,,-80.510258,2999,EasyGO2999,Activa / Sweet William,0
43.422908,,-80.440976,1553,EasyGO1553,Fairview Park Terminal,0
43.423105,,-80.441178,1552,EasyGO1552,Fairview Park Terminal,0
43.42313,,-80.441286,1555,EasyGO1555,Fairview Park Terminal,0
43.423019,,-80.441131,1554,EasyGO1554,Fairview Park Terminal,0
43.423055,,-80.440865,1557,EasyGO1557,Fairview Park Terminal,0
43.423247,,-80.441435,1556,EasyGO1556,Fairview Park Terminal,0
43.423065,,-80.44293,1559,EasyGO1559,Kingsway / Wilson,0
43.423331,,-80.441231,1558,EasyGO1558,Fairview Park Terminal,0
43.410458,,-80.522233,2992,EasyGO2992,David Bergey / Ottawa,0
43.406785,,-80.518875,2993,EasyGO2993,David Bergey / Peach Blossom,0
43.405392,,-80.518447,2994,EasyGO2994,David Bergey / Activa,0
43.403375,,-80.520135,2995,EasyGO2995,Activa / Isaiah,0
43.402748,,-80.518067,2996,EasyGO2996,Activa / Snowdrop,0
43.40248,,-80.514448,2997,EasyGO2997,Activa / Reistview,0
43.412582,,-80.517777,2990,EasyGO2990,Ottawa / International,0
43.49308948,,-80.51261028,2804,EasyGO2804,Lexington / Davenport,0
43.411965,,-80.519432,2991,EasyGO2991,Path To Wake Robin,0
43.41136,,-80.476057,3036,EasyGO3036,Old Country / Strasburg,0
43.411282,,-80.475882,3037,EasyGO3037,Old Country / Strasburg,0
43.413895,,-80.472605,3030,EasyGO3030,Country Hill / Old Country,0
43.41414,,-80.470667,3031,EasyGO3031,Country Hill / Coach Hill,0
43.463842,,-80.52188,1906,EasyGO1906,Uptown Waterloo,0
43.41348999,,-80.46738297,3032,EasyGO3032,Country Hill / Four Seasons,0
43.464092,,-80.521908,1907,EasyGO1907,Uptown Waterloo,0
43.41097804,,-80.46696796,3033,EasyGO3033,Country Hill / Martinglen,0
43.460267,,-80.518952,1904,EasyGO1904,King / Allen,0
43.461687,,-80.521262,1905,EasyGO1905,King / William,0
43.457088,,-80.511103,1900,EasyGO1900,Grand River Hospital,0
43.38815,,-80.341618,1399,EasyGO1399,Dunbar / Grand Valley,0
43.387712,,-80.3377,1398,EasyGO1398,Dunbar / St George,0
43.38811,,-80.335402,1397,EasyGO1397,Dunbar / Pine,0
43.388525,,-80.333057,1396,EasyGO1396,Dunbar / Eastdowns,0
43.388882,,-80.330847,1395,EasyGO1395,Dunbar / Biscayne,0
43.389357,,-80.328913,1394,EasyGO1394,Dunbar / Daleview,0
43.390008,,-80.32668,1393,EasyGO1393,Dunbar / Briarwood,0
43.39043,,-80.324102,1392,EasyGO1392,Dunbar / Hespeler,0
43.391276,,-80.320195,1391,EasyGO1391,Cambridge Centre Terminal,0
43.391317,,-80.319935,1390,EasyGO1390,Cambridge Centre Terminal,0
43.584,,-80.5621,3812,EasyGO3812,Arthur / South Field,0
43.5891,,-80.5614,3813,EasyGO3813,Arthur / Oriole,0
43.5769,,-80.563,3810,EasyGO3810,Arthur / Union,0
43.58092782,,-80.56245428,3811,EasyGO3811,Arthur / Earl Martin,0
43.598,,-80.5592,3816,EasyGO3816,Arthur / Wyatt,0
43.5993,,-80.5581,3817,EasyGO3817,Arthur / Mill,0
43.5945,,-80.5607,3814,EasyGO3814,Arthur / Brubacher,0
43.5967,,-80.5601,3815,EasyGO3815,Arthur / Park,0
43.6001,,-80.5592,3818,EasyGO3818,Church / Maple,0
43.6001,,-80.5633,3819,EasyGO3819,Snyder / Church,0
43.401157,,-80.327595,1425,EasyGO1425,Langs / Hespeler,0
43.46496,,-80.461597,2331,EasyGO2331,Victoria / Turner,0
43.348447,,-80.300417,2183,EasyGO2183,Christopher / Foster,0
43.346553,,-80.298995,2182,EasyGO2182,Champlain / Christopher,0
43.34704,,-80.296975,2181,EasyGO2181,Champlain / Brierdale,0
43.348192,,-80.293223,2180,EasyGO2180,Elgin / Champlain,0
43.359225,,-80.31783,2187,EasyGO2187,North Square / Grand,0
43.359037,,-80.315072,2186,EasyGO2186,Main / Water,0
43.353953,,-80.30261,2185,EasyGO2185,Christopher / Elliott,0
43.350428,,-80.301195,2184,EasyGO2184,Christopher / Ballantyne,0
43.363587,,-80.318665,2189,EasyGO2189,George / Hobson,0
43.361503,,-80.318717,2188,EasyGO2188,George / Blair,0
43.356925,,-80.307672,2213,EasyGO2213,Main / Bruce,0
43.358818,,-80.313267,2212,EasyGO2212,Main / Mill,0
43.356507,,-80.317897,2211,EasyGO2211,St. Andrews / Grand,0
43.354713,,-80.32269,2210,EasyGO2210,Churchill / Brant,0
43.358248,,-80.286907,2217,EasyGO2217,Main / Franklin,0
43.356565,,-80.296663,2216,EasyGO2216,Main / Elgin,0
43.356247,,-80.301283,2215,EasyGO2215,Main / Lincoln,0
43.356562,,-80.304448,2214,EasyGO2214,Main / Peck,0
43.351493,,-80.289607,2219,EasyGO2219,Franklin / Morning,0
43.353522,,-80.288838,2218,EasyGO2218,Path To Elliott,0
43.481115,,-80.47975,2439,EasyGO2439,Bridge / Tyson,0
43.481107,,-80.477495,2438,EasyGO2438,Bloomingdale / Horning,0
43.482733,,-80.463877,2433,EasyGO2433,Schweitzer / Daniel,0
43.481575,,-80.467317,2432,EasyGO2432,Schweitzer / Nelson,0
43.480963,,-80.46903,2431,EasyGO2431,Stanley / Schweitzer,0
43.479298,,-80.46795,2430,EasyGO2430,Stanley / Tagge,0
43.481855,,-80.475285,2437,EasyGO2437,Bloomingdale / Prince,0
43.483318,,-80.47112,2436,EasyGO2436,Bloomingdale / Stanley,0
43.484165,,-80.468855,2435,EasyGO2435,Bloomingdale / Nelson,0
43.485293,,-80.465382,2434,EasyGO2434,Daniel / Bloomingdale,0
43.481577,,-80.53308,1161,EasyGO1161,Hazel / Austin,0
43.482332,,-80.526352,2509,EasyGO2509,King / Columbia,0
43.48395512,,-80.5267301,2508,EasyGO2508,King / Weber,0
43.487533,,-80.527452,2507,EasyGO2507,King / Blue Springs,0
43.490015,,-80.528003,2506,EasyGO2506,King / Waterloo Inn,0
43.491693,,-80.528482,2505,EasyGO2505,King / Manulife,0
43.496628,,-80.529428,2504,EasyGO2504,Path To Bauer,0
43.451932,,-80.48761,2503,EasyGO2503,Weber / Queen,0
43.45261473,,-80.48935093,2502,EasyGO2502,Weber / Ontario,0
43.453955,,-80.492452,2501,EasyGO2501,Weber / Water,0
43.454867,,-80.493902,2500,EasyGO2500,Weber / Victoria,0
43.42836,,-80.464242,2727,EasyGO2727,Walton / Vanier,0
43.427743,,-80.465945,2726,EasyGO2726,Walton / Kipling,0
43.428842,,-80.468278,2725,EasyGO2725,Courtland / Overland,0
43.433082,,-80.472407,2724,EasyGO2724,Courtland / Carwood,0
43.445524,,-80.526745,2723,EasyGO2723,Westwood / Inwood,0
43.435822,,-80.475275,2722,EasyGO2722,Courtland / Sydney,0
43.436942,,-80.477137,2721,EasyGO2721,Courtland / Ottawa,0
43.43806,,-80.479028,2720,EasyGO2720,Courtland / Borden,0
43.424928,,-80.460222,2729,EasyGO2729,Vanier / Kipling,0
43.427303,,-80.462805,2728,EasyGO2728,Vanier / Erie,0
43.5101,,-80.5064,3782,EasyGO3782,Chesapeake / Sandy Cove,0
43.5007,,-80.5064,3783,EasyGO3783,Bridge / Whitmore,0
43.5113,,-80.5097,3780,EasyGO3780,Chesapeake / Seawind,0
43.404182,,-80.473435,1804,EasyGO1804,Strasburg / Mcintyre,0
43.404472,,-80.474062,1803,EasyGO1803,Mcintyre / Strasburg,0
43.403057,,-80.476862,1802,EasyGO1802,Mcintyre / Mcbrine,0
43.402755,,-80.480038,1801,EasyGO1801,221 Mcintyre Dr.,0
43.4965,,-80.501,3785,EasyGO3785,Dansbury / Camille,0
43.4965,,-80.5013,3788,EasyGO3788,Dansbury / Bridge,0
43.4986,,-80.5039,3789,EasyGO3789,Bridge / Lexington,0
43.39597,,-80.461437,1809,EasyGO1809,Battler / Old Huron,0
43.3926,,-80.466775,1808,EasyGO1808,Strasburg / Huron,0
43.38418,,-80.294483,1368,EasyGO1368,Cowan / Wallace,0
43.443648,,-80.540149,3258,EasyGO3258,Westwood / Glasgow,0
43.443022,,-80.542182,3259,EasyGO3259,Glasgow / Fischer-Hallman,0
43.474952,,-80.490273,1948,EasyGO1948,Bridgeport / Lang,0
43.472563,,-80.498712,1949,EasyGO1949,Bridgeport / Goldbeck,0
43.3553,,-80.303903,1525,EasyGO1525,Concession / Peck,0
43.482767,,-80.484757,1942,EasyGO1942,Bridge / Woolwich,0
43.4816,,-80.48313,1943,EasyGO1943,Lancaster / Jones,0
43.486597,,-80.485895,1940,EasyGO1940,Bridle / Dartmoor,0
43.484192,,-80.486928,1941,EasyGO1941,Bridge / Bridgeport P.S.,0
43.476513,,-80.485118,1946,EasyGO1946,Bridgeport / Lancaster,0
43.475548,,-80.487322,1947,EasyGO1947,Bridgeport / Mackie,0
43.479282,,-80.48452,1944,EasyGO1944,Lancaster / General,0
43.441892,,-80.537297,3257,EasyGO3257,Westwood / Dayman,0
43.357055,,-80.293553,1527,EasyGO1527,Main / Alexander,0
43.35713,,-80.313083,1520,EasyGO1520,Ainslie Street Terminal,0
43.357017,,-80.313194,1521,EasyGO1521,Ainslie Street Terminal,0
43.437872,,-80.445957,2859,EasyGO2859,Franklin / Shuh,0
43.431403,,-80.544275,3207,EasyGO3207,Westforest / Victoria,0
43.356965,,-80.313486,1522,EasyGO1522,Ainslie Street Terminal,0
43.389973,,-80.346597,1622,EasyGO1622,King / Bishop,0
43.447702,,-80.458223,2851,EasyGO2851,Ottawa / Nottingham,0
43.445442,,-80.463412,2850,EasyGO2850,Ottawa / Hwy 7 Ramp,0
43.448213,,-80.450697,2853,EasyGO2853,Franklin / Ottawa,0
43.448128,,-80.453353,2852,EasyGO2852,Ottawa / Dreger,0
43.444595,,-80.448475,2855,EasyGO2855,Franklin / Bradley,0
43.426443,,-80.544447,3205,EasyGO3205,Bankside / Westforest,0
43.441762,,-80.447238,2857,EasyGO2857,Franklin / Kenneth,0
43.443362,,-80.447945,2856,EasyGO2856,Franklin / Dalewood,0
43.397657,,-80.30425,1490,EasyGO1490,Franklin / Bishop,0
43.3912,,-80.302187,1491,EasyGO1491,Franklin / Elgin,0
43.385592,,-80.301185,1492,EasyGO1492,Franklin / Glamis,0
43.383278,,-80.300255,1493,EasyGO1493,Path To The Greenway,0
43.380067,,-80.29899,1494,EasyGO1494,Franklin / Avenue,0
43.375257,,-80.297082,1495,EasyGO1495,Franklin / Athlone,0
43.371453,,-80.293852,1496,EasyGO1496,Clyde / Bluerock,0
43.372542,,-80.29021,1497,EasyGO1497,Clyde / Bluerock,0
43.373138,,-80.28708,1498,EasyGO1498,Clyde / Dobbie,0
43.427965,,-80.538048,3203,EasyGO3203,Bankside / Bankside Pk.,0
43.421548,,-80.522407,3338,EasyGO3338,Mcgarry / Pinehurst,0
43.452602,,-80.55283,1994,EasyGO1994,Erb / Fischer-Hallman,0
43.41116,,-80.442052,1700,EasyGO1700,Wilson / Wabanaki,0
43.409202,,-80.442243,1701,EasyGO1701,Wabanaki / Kevco,0
43.40829,,-80.447465,1702,EasyGO1702,Wabanaki / Manitou,0
43.407097,,-80.448785,1703,EasyGO1703,Manitou / Sasaga,0
43.404088,,-80.448362,1704,EasyGO1704,421 Manitou Dr.,0
43.401483,,-80.447778,1705,EasyGO1705,Manitou / Cayuga,0
43.398035,,-80.446822,1706,EasyGO1706,Doon Village / Millwood,0
43.393467,,-80.443803,1707,EasyGO1707,Doon Village / Wheatfield Park,0
43.391789,,-80.440746,1708,EasyGO1708,Doon Village / Bechtel,0
43.390492,,-80.443025,1709,EasyGO1709,Bechtel / Pathfinder,0
43.454545,,-80.54732,1996,EasyGO1996,Erb / Culpepper,0
43.463893,,-80.522139,3658,EasyGO3658,Uptown Waterloo,0
43.3943,,-80.3032,3659,EasyGO3659,Franklin / Can-Amera,0
43.498076,,-80.52883,1128,EasyGO1128,Conestoga Mall Terminal,0
43.498071,,-80.528619,1129,EasyGO1129,Conestoga Mall Terminal,0
43.473523,,-80.516183,2834,EasyGO2834,Weber / Noecker,0
43.473167,,-80.55048,1120,EasyGO1120,Columbia / Village 1,0
43.51099162,,-80.51381115,1121,EasyGO1121,Chesapeake / Chesapeake Cres,0
43.474192,,-80.545442,1122,EasyGO1122,U.W. - B.C. Matthews Hall,0
43.47273,,-80.541218,1123,EasyGO1123,U.W. - Davis Centre,0
43.469388,,-80.539398,1124,EasyGO1124,U.W. - Engineering,0
43.498032,,-80.528561,1125,EasyGO1125,Conestoga Mall Terminal,0
43.498035,,-80.52877,1126,EasyGO1126,Conestoga Mall Terminal,0
43.498042,,-80.528997,1127,EasyGO1127,Conestoga Mall Terminal,0
43.411813,,-80.515837,2989,EasyGO2989,Wilderness / Grey Fox,0
43.410733,,-80.51387,2988,EasyGO2988,Wilderness / Mountain Mint,0
43.415793,,-80.47479,3029,EasyGO3029,Country Hill / Cherry Hill,0
43.416705,,-80.475453,3028,EasyGO3028,Country Hill / Block Line,0
43.42355406,,-80.51929754,2983,EasyGO2983,Fischer-Hallman / Mcgarry,0
43.426167,,-80.521777,2982,EasyGO2982,Forest Heights C.I.,0
43.428217,,-80.523405,2981,EasyGO2981,Fischer-Hallman / Queens,0
43.430424,,-80.525302,2980,EasyGO2980,Highland Hills Mall Terminal,0
43.41046,,-80.51003,2987,EasyGO2987,Activa / Wilderness,0
43.42316,,-80.48165,3022,EasyGO3022,Kingswood / Flint,0
43.416377,,-80.510997,2985,EasyGO2985,Fischer-Hallman / Ottawa,0
43.421347,,-80.516505,2984,EasyGO2984,Fischer-Hallman / Greenbrook,0
43.447285,,-80.442388,1018,EasyGO1018,River / Conway,0
43.445728,,-80.441425,1019,EasyGO1019,River / Bradley,0
43.454288,,-80.446665,1014,EasyGO1014,River / Hickson,0
43.45284,,-80.445712,1015,EasyGO1015,River / Path To Secord,0
43.451233,,-80.444683,1016,EasyGO1016,River / Ottawa,0
43.448708,,-80.443133,1017,EasyGO1017,River / Stanley Park Mall,0
43.461831,,-80.46165777,1010,EasyGO1010,Frederick / River,0
43.459288,,-80.458902,1011,EasyGO1011,River / Islington,0
43.458467,,-80.454168,1012,EasyGO1012,River / Manchester,0
43.457475,,-80.450417,1013,EasyGO1013,River / Halliwell,0
43.49848,,-80.55178,1234,EasyGO1234,Golden Eagle / Weber,0
43.424274,,-80.323206,1235,EasyGO1235,Queen / Rooshill,0
43.429882,,-80.313782,1236,EasyGO1236,Queen / Harvey,0
43.433445,,-80.30735,1237,EasyGO1237,Queen / Hungerford,0
43.5021,,-80.5498,1230,EasyGO1230,Randall / Conrad,0
43.501223,,-80.552262,1231,EasyGO1231,Randall / Weber,0
43.502452,,-80.554887,1232,EasyGO1232,Northlake / Swallow,0
43.498857,,-80.554092,1233,EasyGO1233,Northlake / Mayview,0
43.435822,,-80.304628,1238,EasyGO1238,Queen / Panabaker,0
43.439152,,-80.30165,1239,EasyGO1239,River / Queen,0
43.465298,,-80.488253,2487,EasyGO2487,Guelph / Edwin,0
43.5448,,-80.5508,3809,EasyGO3809,Sawmill / Parkside,0
43.5281,,-80.5553,3808,EasyGO3808,King / Printery,0
43.3739,,-80.3362,3805,EasyGO3805,Blair / Esther,0
43.3842,,-80.411,3804,EasyGO3804,Conestoga College Residence,0
43.5107,,-80.5494,3807,EasyGO3807,Farmers Market / Walmart,0
43.3949,,-80.3258,3806,EasyGO3806,Bishop / Hespeler,0
43.3859,,-80.4124,3801,EasyGO3801,Conestoga College / Pinnacle,0
43.4984,,-80.5291,3800,EasyGO3800,Conestoga Mall Terminal,0
43.3844,,-80.4112,3803,EasyGO3803,Conestoga College Residence,0
43.3855,,-80.4129,3802,EasyGO3802,Conestoga College / Pinnacle,0
43.471185,,-80.484648,2481,EasyGO2481,Union / Lancaster,0
43.457447,,-80.540497,1967,EasyGO1967,Erb / Mcdougall,0
43.358507,,-80.317615,2245,EasyGO2245,Grand / South Square,0
43.40465,,-80.495155,2949,EasyGO2949,Erinbrook / Rockwood,0
43.404427,,-80.492742,2948,EasyGO2948,Erinbrook / Tara,0
43.408297,,-80.485185,2945,EasyGO2945,Erinbrook / Goundry,0
43.409577,,-80.484605,2944,EasyGO2944,Rittenhouse / Mccabe,0
43.46226,,-80.53032,1963,EasyGO1963,Erb / Avondale,0
43.34372,,-80.284105,2228,EasyGO2228,Gatehouse / Myers,0
43.343637,,-80.285745,2229,EasyGO2229,Myers / Franklin,0
43.341312,,-80.280263,2226,EasyGO2226,Gatehouse / Wheeler,0
43.341585,,-80.282627,2227,EasyGO2227,Gatehouse / Flockhart,0
43.344857,,-80.280268,2224,EasyGO2224,Lisbon Pines / Myers,0
43.343165,,-80.279163,2225,EasyGO2225,Gatehouse / Mcnichol,0
43.34955,,-80.281205,2222,EasyGO2222,Lisbon Pines / Champlain,0
43.34646,,-80.280827,2223,EasyGO2223,Lisbon Pines / Santa Maria,0
43.348318,,-80.287612,2220,EasyGO2220,Champlain / Franklin,0
43.34919,,-80.284602,2221,EasyGO2221,Champlain / Carlos,0
43.505112,,-80.525867,2088,EasyGO2088,Northfield / Wissler,0
43.502133,,-80.533728,2089,EasyGO2089,King / Northfield,0
43.500217,,-80.561388,2082,EasyGO2082,Northlake / Monarch,0
43.502195,,-80.556478,2083,EasyGO2083,Northlake / Black Forest,0
43.495908,,-80.566085,2080,EasyGO2080,Northlake / Conservation,0
43.498635,,-80.564637,2081,EasyGO2081,Northlake / Twinflower,0
43.514277,,-80.498555,2086,EasyGO2086,University / Woolwich St.,0
43.51567,,-80.500062,2087,EasyGO2087,University / New Hampshire,0
43.497617,,-80.55065,2084,EasyGO2084,Weber / Northfield,0
43.425283,,-80.526045,3342,EasyGO3342,Elm Ridge / Hillbrook,0
43.458271,,-80.515238,2538,EasyGO2538,King / Union,0
43.427607,,-80.52634,3343,EasyGO3343,Queens / Highland Hills Mall,0
43.47835,,-80.525515,2532,EasyGO2532,King / Hickory,0
43.475428,,-80.524983,2533,EasyGO2533,King / University,0
43.460296,,-80.519303,2536,EasyGO2536,King / Allen,0
43.422638,,-80.521568,3340,EasyGO3340,Elm Ridge / Hickory Heights,0
43.469807,,-80.523732,2535,EasyGO2535,King / Central,0
43.448483,,-80.488785,2712,EasyGO2712,Charles / Benton,0
43.44747,,-80.4894,2713,EasyGO2713,Benton / Church,0
43.44934,,-80.492913,2710,EasyGO2710,Charles St. Terminal,0
43.448865,,-80.491814,2711,EasyGO2711,Charles St. Terminal,0
43.442307,,-80.486292,2716,EasyGO2716,Courtland / Madison,0
43.445963,,-80.491028,2714,EasyGO2714,Benton / Courtland,0
43.44411,,-80.489403,2715,EasyGO2715,Courtland / Peter,0
43.431543,,-80.515265,3346,EasyGO3346,Queens / Warren,0
43.439872,,-80.482138,2718,EasyGO2718,Courtland / Palmer,0
43.438807,,-80.480262,2719,EasyGO2719,Courtland / Kent,0
43.432382,,-80.512898,3347,EasyGO3347,Queens / Cecile,0
43.429507,,-80.520355,3344,EasyGO3344,Queens / Bonfair,0
43.430235,,-80.51814,3345,EasyGO3345,Queens / Silverspring,0
43.391513,,-80.451182,1832,EasyGO1832,Black Walnut / Pioneer,0
43.392792,,-80.453572,1833,EasyGO1833,Black Walnut / Carlyle,0
43.393693,,-80.433307,1830,EasyGO1830,Old Carriage/Pioneer,0
43.391832,,-80.440417,1831,EasyGO1831,Bechtel / Doon Village,0
43.397163,,-80.455622,1836,EasyGO1836,Biehn / Old Huron,0
43.397262,,-80.45813,1837,EasyGO1837,Old Huron / Maxwell,0
43.393253,,-80.455257,1834,EasyGO1834,Black Walnut / Biehn,0
43.39548,,-80.455363,1835,EasyGO1835,Biehn / Carlyle,0
43.3693,,-80.3407,3795,EasyGO3795,Bismark / Westcliff,0
43.3704,,-80.3446,3794,EasyGO3794,Princess / Westcliff,0
43.395925,,-80.460573,1838,EasyGO1838,Old Huron / Battler,0
43.392648,,-80.46571,1839,EasyGO1839,Huron / Strasburg,0
43.5014,,-80.507,3790,EasyGO3790,Bridge / Whitmore,0
43.3723,,-80.3415,3793,EasyGO3793,Princess / Rosslinn,0
43.3749,,-80.3397,3792,EasyGO3792,Blair / Esther,0
43.34732,,-80.32223,2154,EasyGO2154,Stanley / Glenmorris,0
43.34682,,-80.319702,2155,EasyGO2155,First / Caen,0
43.348587,,-80.318055,2156,EasyGO2156,Middleton / Francis,0
43.451047,,-80.477302,2405,EasyGO2405,Krug / Samuel,0
43.349245,,-80.329338,2150,EasyGO2150,Woodside / Victoria,0
43.347905,,-80.327917,2151,EasyGO2151,St. Gregorys / St. Andrews,0
43.346312,,-80.328045,2152,EasyGO2152,Stanley / Borden,0
43.34668,,-80.325525,2153,EasyGO2153,Stanley / Tait,0
43.353032,,-80.31729,2158,EasyGO2158,Grand / Cedar,0
43.354475,,-80.313477,2159,EasyGO2159,Ainslie / Veterans,0
43.450598,,-80.48426,2408,EasyGO2408,Weber / Scott,0
43.454898,,-80.501357,2409,EasyGO2409,Wellington / Moore,0
43.476343,,-80.5098,2829,EasyGO2829,Marshall / Lincoln,0
43.46917,,-80.515232,1955,EasyGO1955,Bridgeport / Devitt,0
43.469837,,-80.51365,1954,EasyGO1954,Bridgeport / Weber,0
43.467337,,-80.523077,1957,EasyGO1957,King / Bridgeport,0
43.468115,,-80.520247,1956,EasyGO1956,Bridgeport / Peppler,0
43.472357,,-80.504592,1951,EasyGO1951,Bridgeport / Margaret,0
43.472512,,-80.501147,1950,EasyGO1950,Bridgeport / Bluevale,0
43.471198,,-80.509963,1953,EasyGO1953,Bridgeport / L'Harmonie,0
43.471638,,-80.508025,1952,EasyGO1952,Bridgeport / Ellis,0
43.461685,,-80.521525,1959,EasyGO1959,King / William,0
43.464927,,-80.522385,1958,EasyGO1958,King / Erb,0
43.454373,,-80.510632,3243,EasyGO3243,Park / Glasgow,0
43.455787,,-80.513562,3242,EasyGO3242,Park / Wood,0
43.456432,,-80.515537,3241,EasyGO3241,Park / Union,0
43.457295,,-80.516278,3240,EasyGO3240,Union / Park,0
43.452394,,-80.515711,3245,EasyGO3245,Glasgow / Eden,0
43.453325,,-80.513162,3244,EasyGO3244,Glasgow / York,0
43.336132,,-80.30371,2284,EasyGO2284,Langlaw / Enfield,0
43.45066,,-80.551705,1993,EasyGO1993,Fischer-Hallman / Westridge,0
43.411678,,-80.324663,1483,EasyGO1483,Smartcentres Cambridge,0
43.410387,,-80.322738,1482,EasyGO1482,Smartcentres South,0
43.407278,,-80.327625,1481,EasyGO1481,Hespeler / Eagle,0
43.403548,,-80.326417,1480,EasyGO1480,561 Hespeler Rd.,0
43.406523,,-80.307098,1487,EasyGO1487,Franklin / Sheldon,0
43.40794,,-80.307512,1486,EasyGO1486,Franklin / Stafford,0
43.411118,,-80.308485,1485,EasyGO1485,Franklin / Pinebush,0
43.41744,,-80.310437,1484,EasyGO1484,Franklin / Holiday Inn,0
43.428553,,-80.524327,3306,EasyGO3306,Queens / Fischer-Hallman,0
43.427698,,-80.526523,3307,EasyGO3307,Queens / Highland Hills Mall,0
43.40088,,-80.30528,1489,EasyGO1489,Franklin / Raglin,0
43.403475,,-80.3061,1488,EasyGO1488,Franklin / Turnbull,0
43.43313,,-80.517245,3302,EasyGO3302,Overlea / Ralgreen,0
43.430555,,-80.51773,3303,EasyGO3303,Queens / Silverspring,0
43.432157,,-80.51392,3300,EasyGO3300,Queens / Cecile,0
43.433545,,-80.515513,3301,EasyGO3301,Cecile / Overlea,0
43.39387288,,-80.44854688,1713,EasyGO1713,Pioneer / Vintage,0
43.456232,,-80.497412,2411,EasyGO2411,Wellington / Duke,0
43.389722,,-80.449372,1711,EasyGO1711,Bechtel / Wheatfield,0
43.389977,,-80.444883,1710,EasyGO1710,Bechtel / Anvil,0
43.394266,,-80.433365,1717,EasyGO1717,Pioneer/Old Carriage,0
43.393938,,-80.441627,1715,EasyGO1715,Pioneer / Upper Canada,0
43.39528,,-80.445152,1714,EasyGO1714,Pioneer / Doon Village,0
43.396097,,-80.429912,1719,EasyGO1719,Green Valley / Pioneer,0
43.395605,,-80.43151,1718,EasyGO1718,Pioneer / Homer Watson,0
43.457585,,-80.493278,2413,EasyGO2413,Wellington / Ahrens,0
43.353403,,-80.340965,2144,EasyGO2144,Kent / Hillsboro,0
43.459662,,-80.487077,2415,EasyGO2415,Wellington / St. Leger,0
43.458712,,-80.489938,2414,EasyGO2414,Wellington / Margaret,0
43.494805,,-80.55713,1139,EasyGO1139,Northlake / Black Oak,0
43.493625,,-80.556175,1138,EasyGO1138,Northfield / Skylark,0
43.356545,,-80.336592,2141,EasyGO2141,Salisbury / Southgate,0
43.51066959,,-80.51389947,1133,EasyGO1133,Chesapeake / Seawind,0
43.500295,,-80.537427,1132,EasyGO1132,Northfield / Colby,0
43.501633,,-80.53392,1131,EasyGO1131,Northfield / King,0
43.498071,,-80.528415,1130,EasyGO1130,Conestoga Mall Terminal,0
43.494482,,-80.55376,1137,EasyGO1137,Northfield / Northgate,0
43.495593,,-80.550702,1136,EasyGO1136,Northfield / Weber,0
43.49618,,-80.548988,1135,EasyGO1135,Northfield / Weber,0
43.497323,,-80.545668,1134,EasyGO1134,Northfield / Parkside,0
43.504283,,-80.538005,2060,EasyGO2060,Wyman / Colby,0
43.506978,,-80.53429,2061,EasyGO2061,Rupert / Northland,0
43.509382,,-80.536043,2062,EasyGO2062,Bathurst / Rupert,0
43.417113,,-80.48115,3018,EasyGO3018,Strasburg / Blackhorne,0
43.418672,,-80.482857,3019,EasyGO3019,Strasburg / Selkirk,0
43.406163,,-80.4866,3012,EasyGO3012,Erinbrook / Thistledown,0
43.408398,,-80.485075,3013,EasyGO3013,Erinbrook / Goundry,0
43.404372,,-80.491223,3010,EasyGO3010,Erinbrook / Marlis,0
43.404652,,-80.489897,3011,EasyGO3011,Erinbrook / Rushbrook,0
43.41375,,-80.483188,3016,EasyGO3016,Rittenhouse / Block Line,0
43.416213,,-80.480103,3017,EasyGO3017,Strasburg / Block Line,0
43.409317,,-80.485223,3014,EasyGO3014,Erinbrook / Rittenhouse,0
43.410582,,-80.482558,3015,EasyGO3015,Rittenhouse / Tuerr,0
43.507282,,-80.526847,2066,EasyGO2066,Mcmurray / Frobisher,0
43.46092,,-80.464627,1009,EasyGO1009,Frederick / Lois,0
43.4599946,,-80.4675152,1008,EasyGO1008,Frederick / Bruce,0
43.459292,,-80.469787,1007,EasyGO1007,Frederick / Ann,0
43.457928,,-80.473572,1006,EasyGO1006,Frederick Street Mall,0
43.456218,,-80.476897,1004,EasyGO1004,Frederick / Merner,0
43.454832,,-80.479506,1003,EasyGO1003,Frederick / Samuel,0
43.453003,,-80.482905,1002,EasyGO1002,Frederick / Otto,0
43.452327,,-80.48418,1001,EasyGO1001,Frederick / Irvin,0
43.449667,,-80.487195,1000,EasyGO1000,Frederick / King,0
43.499817,,-80.541767,1227,EasyGO1227,Kumpf / Northfield,0
43.500883,,-80.53866,1226,EasyGO1226,Colby / Colby Dr.,0
43.503888,,-80.54154,1225,EasyGO1225,601 Colby Dr.,0
43.505638,,-80.542803,1224,EasyGO1224,612 Colby Dr.,0
43.507375,,-80.542742,1223,EasyGO1223,Colby / Colby Crt.,0
43.506382,,-80.5406,1222,EasyGO1222,633 Colby Dr.,0
43.504427,,-80.538053,1221,EasyGO1221,Wyman / Colby,0
43.505877,,-80.535618,1220,EasyGO1220,Northland / Frobisher,0
43.50674855,,-80.54607737,1229,EasyGO1229,Kumpf / R.I.M.,0
43.501265,,-80.542702,1228,EasyGO1228,585 Kumpf Dr.,0
43.413442,,-80.486295,2882,EasyGO2882,Block Line / Mclennan Pk.,0
43.413802,,-80.483542,2883,EasyGO2883,Block Line / Rittenhouse,0
43.412783,,-80.491957,2880,EasyGO2880,Laurentian / Block Line,0
43.4125,,-80.4922,2881,EasyGO2881,Block Line / Laurentian,0
43.414148,,-80.482905,2886,EasyGO2886,Block Line / Rittenhouse,0
43.413538,,-80.48675,2887,EasyGO2887,Block Line / Mclennan Pk.,0
43.415538,,-80.479552,2884,EasyGO2884,Strasburg / Block Line,0
43.41574,,-80.480338,2885,EasyGO2885,Block Line / Strasburg,0
43.412768,,-80.491483,2888,EasyGO2888,Block Line / Laurentian,0
43.41515,,-80.49245,2889,EasyGO2889,Laurentian / Briar Knoll,0
43.39304566,,-80.33635571,3878,EasyGO3878,Bishop / Mary,0
43.44064392,,-80.54948824,3879,EasyGO3879,University / Westvale,0
43.37713648,,-80.31332217,3871,EasyGO3871,Brooklyne / Glen,0
43.59256677,,-80.5609297,3873,EasyGO3873,Arthur / First,0
43.40653086,,-80.49884806,3874,EasyGO3874,Westmount / Fischer-Hallman,0
43.393269,,-80.33465462,3877,EasyGO3877,954 Bishop St.,0
43.402828,,-80.515262,2958,EasyGO2958,Activa / Henhoeffer,0
43.443407,,-80.523163,3118,EasyGO3118,Chopin / Westmount,0
43.44189421,,-80.56529478,3904,EasyGO3904,Ira Needles / Thorndale,0
43.44609296,,-80.57072706,3905,EasyGO3905,Ira Needles / Erb,0
43.44587377,,-80.57091855,3906,EasyGO3906,Ira Needles / Erb,0
43.458264,,-80.55752562,3907,EasyGO3907,Keats Way / Fischer-Hallman,0
43.49304914,,-80.51257968,3900,EasyGO3900,Lexington / Davenport,0
43.43764181,,-80.56293175,3901,EasyGO3901,The Boardwalk /Lifestyle Way,0
43.43983571,,-80.56279059,3902,EasyGO3902,Path To Cardiff,0
43.44232187,,-80.56552234,3903,EasyGO3903,Ira Needles / Thorndale,0
43.445189,,-80.527392,3271,EasyGO3271,Westwood / Inwood,0
43.43555689,,-80.56068206,3908,EasyGO3908,The Boardwalk Terminal,0
43.43613716,,-80.51460996,3909,EasyGO3909,Westmount / Highland,0
43.447803,,-80.503305,3112,EasyGO3112,Victoria / Henry,0
43.369698,,-80.283968,1534,EasyGO1534,Dobbie / Orion,0
43.365565,,-80.314563,1471,EasyGO1471,Ainslie / Market,0
43.347108,,-80.310308,2239,EasyGO2239,Glenview / Albert,0
43.347335,,-80.308947,2238,EasyGO2238,Glenview / Henry,0
43.342247,,-80.29406,2231,EasyGO2231,Myers / Greenbrier,0
43.342687,,-80.291482,2230,EasyGO2230,Myers / Elgin,0
43.341467,,-80.300803,2233,EasyGO2233,Christopher / Myers,0
43.346338,,-80.30014,2235,EasyGO2235,Champlain / Christopher,0
43.343933,,-80.300675,2234,EasyGO2234,Christopher / Tutton,0
43.348073,,-80.304885,2237,EasyGO2237,Glenview / Mcdonald,0
43.34624,,-80.303125,2236,EasyGO2236,Mcdonald / Dorset,0
43.438925,,-80.46068,3576,EasyGO3576,Weber / Eastwood S.S.,0
43.418112,,-80.509308,3498,EasyGO3498,Ottawa / Valleyview,0
43.40998,,-80.499323,3499,EasyGO3499,Westmount / Tillsley,0
43.408343,,-80.510985,3496,EasyGO3496,Activa / Copper Leaf,0
43.414987,,-80.513617,3494,EasyGO3494,Ottawa / Sunrise Ctr.,0
43.406477,,-80.512383,3495,EasyGO3495,Activa / Max Becker,0
43.420907,,-80.49728,3492,EasyGO3492,Howland / Ottawa,0
43.417663,,-80.510273,3493,EasyGO3493,Ottawa / Nine Pines,0
43.418272,,-80.494462,3490,EasyGO3490,Laurentian / Shea,0
43.418948,,-80.495937,3491,EasyGO3491,Howland / Laurentian,0
43.505035,,-80.537332,2095,EasyGO2095,King / Northland,0
43.54058,,-80.553365,2094,EasyGO2094,King / Front,0
43.366438,,-80.305462,2097,EasyGO2097,Beverly / Dundas,0
43.50141,,-80.533218,2096,EasyGO2096,King / Northfield,0
43.510057,,-80.555878,2091,EasyGO2091,Farmers Market/ Benjamin,0
43.504827,,-80.536775,2090,EasyGO2090,King / Northland,0
43.537857,,-80.553773,2093,EasyGO2093,King / Cedar,0
43.532993,,-80.554562,2092,EasyGO2092,King / Henry,0
43.419475,,-80.539277,3655,EasyGO3655,Westheights / Driftwood,0
43.509923,,-80.505552,3656,EasyGO3656,Chesapeake / New Bedford,0
43.472052,,-80.4843,3657,EasyGO3657,Lancaster / Hwy 85 Ramp,0
43.370495,,-80.303505,2099,EasyGO2099,Samuelson / Beverly,0
43.368718,,-80.304048,2098,EasyGO2098,Beverly/Samuelson,0
43.436422,,-80.314835,1301,EasyGO1301,Fisher Mills / Fearnwood,0
43.480792,,-80.52907,2525,EasyGO2525,Columbia / Holly,0
43.480035,,-80.531125,2524,EasyGO2524,Columbia / Hazel,0
43.480923,,-80.524758,2527,EasyGO2527,Regina / Columbia,0
43.48170922,,-80.52637573,2526,EasyGO2526,Columbia / King,0
43.476808,,-80.540192,2521,EasyGO2521,Columbia / Phillip,0
43.475432,,-80.54412,2520,EasyGO2520,Columbia / U.W. Optometry,0
43.478547,,-80.535328,2523,EasyGO2523,Columbia / Albert,0
43.477857,,-80.537262,2522,EasyGO2522,Columbia / Lester,0
43.478192,,-80.525173,2529,EasyGO2529,Hickory / King,0
43.478708,,-80.524295,2528,EasyGO2528,Regina / Hickory,0
43.449247,,-80.492813,2709,EasyGO2709,Charles St. Terminal,0
43.448912,,-80.491987,2708,EasyGO2708,Charles St. Terminal,0
43.444567,,-80.49445,2705,EasyGO2705,Queen / Schneider,0
43.442617,,-80.496425,2704,EasyGO2704,Queen / Homewood,0
43.44667,,-80.4922,2707,EasyGO2707,Queen / Courtland,0
43.445643,,-80.49334,2706,EasyGO2706,Queen / Courtland,0
43.440507,,-80.50552,2701,EasyGO2701,Highland / Patricia,0
43.440082,,-80.506768,2700,EasyGO2700,Highland / North,0
43.441125,,-80.499503,2703,EasyGO2703,Highland / Garden,0
43.441168,,-80.502095,2702,EasyGO2702,Highland / West,0
43.391498,,-80.431277,1829,EasyGO1829,119 Old Carriage Dr.,0
43.391018,,-80.428047,1828,EasyGO1828,Old Carriage/Homer Watson,0
43.392087,,-80.432585,1825,EasyGO1825,Old Carriage Crt.,0
43.3939,,-80.434227,1824,EasyGO1824,Pioneer / Old Carriage,0
43.390953,,-80.427853,1827,EasyGO1827,Old Carriage/Homer Watson,0
43.391312,,-80.431097,1826,EasyGO1826,100 Old Carriage Dr.,0
43.392528,,-80.45336,1821,EasyGO1821,Black Walnut Place,0
43.393135,,-80.455148,1820,EasyGO1820,Black Walnut / Biehn,0
43.391957,,-80.439926,1823,EasyGO1823,Bechtel / Doon Village,0
43.39136,,-80.450672,1822,EasyGO1822,Black Walnut / Pioneer,0
43.350165,,-80.336583,2147,EasyGO2147,Cedar / Southwood,0
43.349883,,-80.339482,2146,EasyGO2146,Kent / Cedar,0
43.352287,,-80.340915,2145,EasyGO2145,Kent / Sim,0
43.45693,,-80.495315,2412,EasyGO2412,Wellington / Weber,0
43.355227,,-80.341738,2143,EasyGO2143,Kent / Salisbury,0
43.356782,,-80.339105,2142,EasyGO2142,Salisbury / Murray,0
43.461987,,-80.483587,2417,EasyGO2417,Lancaster / Louisa,0
43.356112,,-80.332932,2140,EasyGO2140,Hillcrest / Highland,0
43.465495,,-80.484077,2419,EasyGO2419,Lancaster / Guelph,0
43.464377,,-80.484092,2418,EasyGO2418,Lancaster / Hill,0
43.349988,,-80.332693,2149,EasyGO2149,Woodside / Cedar,0
43.35057,,-80.334265,2148,EasyGO2148,Cedar / Woodside,0
43.505215,,-80.525552,1920,EasyGO1920,Northfield / Wissler,0
43.51125,,-80.521492,1921,EasyGO1921,Northfield / Bridge,0
43.510022,,-80.51924,1922,EasyGO1922,Bridge / Labrador,0
43.504145,,-80.50813,1925,EasyGO1925,Eastbridge / Acadia,0
43.445065,,-80.529752,3270,EasyGO3270,Westwood / Westwood Cres.,0
43.506133,,-80.50193,1927,EasyGO1927,Eastbridge / Bonavista,0
43.508598,,-80.50048,1928,EasyGO1928,Eastbridge / Bonavista,0
43.51062,,-80.500477,1929,EasyGO1929,Eastbridge / New Bedford,0
43.452935,,-80.513885,3278,EasyGO3278,Glasgow / York,0
43.454682,,-80.510795,3279,EasyGO3279,Park / Green,0
43.4219,,-80.468168,3474,EasyGO3474,St. Marys H.S. 11,0
43.421453,,-80.46789,3476,EasyGO3476,St. Marys H.S. 9,0
43.421258,,-80.467712,3477,EasyGO3477,St. Marys H.S. 8,0
43.422082,,-80.468292,3473,EasyGO3473,St. Marys H.S. 12,0
43.421057,,-80.467453,3478,EasyGO3478,St. Marys H.S. 7,0
43.420917,,-80.467153,3479,EasyGO3479,St. Marys H.S. 6,0
43.44886,,-80.558158,1986,EasyGO1986,Westvale / Heather Hill,0
43.419185,,-80.533138,3319,EasyGO3319,Westheights / Lorilee,0
43.419552,,-80.53039,3318,EasyGO3318,Westheights / Mcgarry,0
43.423543,,-80.446804,2594,EasyGO2594,Wilson / Traynor,0
43.422587,,-80.522692,3311,EasyGO3311,Elm Ridge / Ramblewood,0
43.423747,,-80.525033,3310,EasyGO3310,Elm Ridge / Silver Aspen,0
43.420128,,-80.51942,3313,EasyGO3313,Forestwood / Forest Glen,0
43.421483,,-80.521598,3312,EasyGO3312,Forestwood / Mcgarry,0
43.418107,,-80.522345,3315,EasyGO3315,Forestwood / Meadowbrook,0
43.418898,,-80.520047,3314,EasyGO3314,Forestwood / Glen Avon,0
43.419538,,-80.528697,3317,EasyGO3317,Mcgarry / Royal Orchard,0
43.41955,,-80.526467,3316,EasyGO3316,Forestwood / Meadowlane,0
43.388705,,-80.41127,1728,EasyGO1728,Conestoga College Entrance,0
43.38523,,-80.412057,1729,EasyGO1729,Conestoga College Residence,0
43.3898,,-80.414374,1726,EasyGO1726,Doon Valley / Pinnacle,0
43.390815,,-80.41018,1727,EasyGO1727,Doon Valley / Conestoga,0
43.392182,,-80.414307,1724,EasyGO1724,Pinnacle / Amherst,0
43.389872,,-80.415377,1725,EasyGO1725,Pinnacle / Doon Valley,0
43.394292,,-80.417852,1722,EasyGO1722,Old Mill / Roos,0
43.393372,,-80.414295,1723,EasyGO1723,Old Mill / Pinnacle,0
43.395152,,-80.426995,1720,EasyGO1720,Green Valley / Arrowhead,0
43.395893,,-80.42589,1721,EasyGO1721,Green Valley / Mill Park,0
43.450587,,-80.558591,1984,EasyGO1984,Erb / Gateview,0
43.408988,,-80.498035,3005,EasyGO3005,Tillsley / Westmount,0
43.41125895,,-80.49907188,3004,EasyGO3004,Block Line / Westmount,0
43.407222,,-80.496185,3007,EasyGO3007,Erinbrook / Ridgeway,0
43.408972,,-80.4968,3006,EasyGO3006,Tillsley / Erinbrook,0
43.40414,,-80.503495,3001,EasyGO3001,Max Becker / Commonwealth,0
43.403383,,-80.508098,3000,EasyGO3000,Max Becker / Copper Leaf,0
43.410512,,-80.499282,3003,EasyGO3003,Westmount / Block Line,0
43.404815,,-80.501677,3002,EasyGO3002,Max Becker / Helena Feasby,0
43.450058,,-80.557611,1985,EasyGO1985,Gateview / Westvale,0
43.404308,,-80.493175,3009,EasyGO3009,Erinbrook / Tamvale,0
43.404395,,-80.494788,3008,EasyGO3008,Erinbrook / Rockwood,0
43.39418,,-80.355288,1588,EasyGO1588,King / Lowther,0
43.39296747,,-80.352948,1589,EasyGO1589,King / Dolph,0
43.395375,,-80.373453,1582,EasyGO1582,Fountain / Bauman,0
43.397713,,-80.371205,1583,EasyGO1583,Fountain / Shantz Hill,0
43.391887,,-80.377486,1580,EasyGO1580,Preston / Woods,0
43.39084,,-80.375315,1581,EasyGO1581,Preston / Fountain,0
43.397257,,-80.361195,1586,EasyGO1586,King / Waterloo,0
43.395625,,-80.358055,1587,EasyGO1587,King / Westminster,0
43.399824,,-80.368443,1584,EasyGO1584,King / Fountain,0
43.399033,,-80.364447,1585,EasyGO1585,King / Chopin,0
43.441435,,-80.418078,1038,EasyGO1038,Fairway / Idle Creek,0
43.436777,,-80.42629,1039,EasyGO1039,Fairway / Old Chicopee,0
43.446511,,-80.570329,1982,EasyGO1982,Erb / Ira Needles,0
43.456695,,-80.429128,1032,EasyGO1032,Lackner / Plaza,0
43.45587,,-80.428012,1033,EasyGO1033,Lackner / Path To Gray,0
43.455388,,-80.432517,1030,EasyGO1030,Ottawa / Oldfield,0
43.45671,,-80.431618,1031,EasyGO1031,Ottawa / Lackner,0
43.447017,,-80.42144,1036,EasyGO1036,Lackner / Daimler,0
43.444772,,-80.416537,1037,EasyGO1037,Lackner / Corfield,0
43.451868,,-80.42481,1034,EasyGO1034,Lackner / Quaiser,0
43.449693,,-80.423827,1035,EasyGO1035,Lackner / Oldfield,0
43.50147446,,-80.530614,1212,EasyGO1212,Kraus / Northfield,0
43.50709,,-80.526702,1210,EasyGO1210,Frobisher / Mcmurray,0
43.50311291,,-80.52980583,1211,EasyGO1211,Northfield / Davenport,0
43.511095,,-80.531618,1216,EasyGO1216,Bathurst / Mcmurray,0
43.510245,,-80.533948,1217,EasyGO1217,Bathurst / Rankin,0
43.509115,,-80.528723,1215,EasyGO1215,Mcmurray / Northland,0
43.508975,,-80.536588,1218,EasyGO1218,Rupert / Bathurst,0
43.506807,,-80.534284,1219,EasyGO1219,Rupert / Northland,0
43.448022,,-80.566038,1983,EasyGO1983,Erb / Erbsville,0
43.46065,,-80.484048,2416,EasyGO2416,Wellington / Major,0
43.420222,,-80.502148,2899,EasyGO2899,Ottawa / Westmount,0
43.419853,,-80.504665,2898,EasyGO2898,Ottawa / Pinedale,0
43.414832,,-80.503497,2895,EasyGO2895,Williamsburg / Littlefield,0
43.413218,,-80.501492,2894,EasyGO2894,Williamsburg / Dinison,0
43.418535,,-80.507583,2897,EasyGO2897,Williamsburg / Ottawa,0
43.416538,,-80.50538,2896,EasyGO2896,Williamsburg / Pinedale,0
43.41592,,-80.49635,2891,EasyGO2891,Dunsmere / Colebrook,0
43.416332,,-80.493978,2890,EasyGO2890,Dunsmere / Laurentian,0
43.414297,,-80.50025,2893,EasyGO2893,Dunsmere / Westmount,0
43.414923,,-80.498018,2892,EasyGO2892,Dunsmere / Radcliffe,0
43.390347,,-80.324058,1454,EasyGO1454,Dunbar / Hespeler,0
43.396073,,-80.358562,1455,EasyGO1455,King / Westminster,0
43.4117,,-80.323612,1456,EasyGO1456,Smartcentres Cambridge,0
43.410248,,-80.322898,1457,EasyGO1457,Smartcentres South,0
43.387988,,-80.335522,1450,EasyGO1450,Dunbar / Pine,0
43.388338,,-80.333547,1451,EasyGO1451,Dunbar / Eastdowns,0
43.388732,,-80.331053,1452,EasyGO1452,Dunbar / Biscayne,0
43.389923,,-80.326677,1453,EasyGO1453,Dunbar / Briarwood,0
43.406692,,-80.327903,1458,EasyGO1458,Hespeler / Eagle,0
43.404173,,-80.327063,1459,EasyGO1459,588 Hespeler Rd.,0
43.472752,,-80.589498,1108,EasyGO1108,Laurelwood / Birchmount,0
43.472042,,-80.585092,1109,EasyGO1109,Laurelwood / Brookmill,0
43.353423,,-80.318077,3863,EasyGO3863,Cedar / Grand,0
43.353243,,-80.317621,3862,EasyGO3862,Cedar / Grand,0
43.352326,,-80.323958,3861,EasyGO3861,Cedar / St. Andrews,0
43.378732,,-80.308561,3860,EasyGO3860,Avenue / Elgin,0
43.478211,,-80.530307,3865,EasyGO3865,Waterloo C.I. 3,0
43.352572,,-80.323319,3864,EasyGO3864,Cedar / Glenmorris,0
43.453725,,-80.500792,1894,EasyGO1894,King / Breithaupt,0
43.454293,,-80.502501,1895,EasyGO1895,King / Wellington,0
43.454549,,-80.503249,1896,EasyGO1896,King / Wellington,0
43.455008,,-80.504835,1897,EasyGO1897,King / Agnes,0
43.450445,,-80.490607,1890,EasyGO1890,King / Ontario,0
43.452292,,-80.496107,1892,EasyGO1892,King / Francis,0
43.452862,,-80.497921,1893,EasyGO1893,Victoria,0
43.44311361,,-80.5226481,3917,EasyGO3917,Westmount / Chopin,0
43.43916327,,-80.52091147,3916,EasyGO3916,Westmount / Victoria,0
43.43610096,,-80.51518674,3915,EasyGO3915,Westmount / Highland,0
43.45242637,,-80.52570716,3914,EasyGO3914,Westmount / Union,0
43.44937787,,-80.52357714,3913,EasyGO3913,Westmount / Glasgow,0
43.44686621,,-80.52294682,3912,EasyGO3912,Westmount / Westwood,0
43.4436861,,-80.52247756,3911,EasyGO3911,Westmount / Brybeck,0
43.43982592,,-80.52107462,3910,EasyGO3910,Westmount / Victoria,0
43.44916674,,-80.5236896,3919,EasyGO3919,Westmount / Glasgow,0
43.4463196,,-80.52311848,3918,EasyGO3918,Westmount / Westwood,0
43.40583,,-80.38609,1636,EasyGO1636,Gateway Park / King,0
43.346782,,-80.325512,2131,EasyGO2131,Stanley / Tait,0
43.417072,,-80.49382,3489,EasyGO3489,Laurentian / Dunsmere,0
43.417062,,-80.476083,3488,EasyGO3488,Block Line / Country Hill,0
43.420853,,-80.466833,3481,EasyGO3481,St. Marys H.S. 4,0
43.420885,,-80.467008,3480,EasyGO3480,St. Marys H.S. 5,0
43.420828,,-80.46654,3483,EasyGO3483,St. Marys H.S. 2,0
43.420823,,-80.466652,3482,EasyGO3482,St. Marys H.S. 3,0
43.420842,,-80.46638,3484,EasyGO3484,St. Marys H.S. 1,0
43.417152,,-80.476262,3486,EasyGO3486,Block Line / Country Hill,0
43.425612,,-80.373865,3649,EasyGO3649,Vondrau / Maple Grove,0
43.429887,,-80.375042,3648,EasyGO3648,Boxwood / Vondrau,0
43.430573,,-80.371108,3647,EasyGO3647,Boxwood / Vondrau,0
43.42813,,-80.365,3646,EasyGO3646,Boxwood / Maple Grove,0
43.424225,,-80.378415,3645,EasyGO3645,Fountain / Maple Grove,0
43.435022,,-80.449717,3642,EasyGO3642,Weber / Broadview,0
43.38847,,-80.41105,3641,EasyGO3641,Conestoga College Entrance,0
43.43392,,-80.510372,3640,EasyGO3640,Queensmount P.S.,0
43.449168,,-80.492105,2550,EasyGO2550,Charles St. Terminal,0
43.449258,,-80.492318,2551,EasyGO2551,Charles St. Terminal,0
43.449406,,-80.492675,2552,EasyGO2552,Charles St. Terminal,0
43.449542,,-80.492968,2553,EasyGO2553,Charles St. Terminal,0
43.449249,,-80.492182,2554,EasyGO2554,Charles St. Terminal,0
43.449007,,-80.492207,2555,EasyGO2555,Charles St. Terminal,0
43.449088,,-80.492453,2556,EasyGO2556,Charles St. Terminal,0
43.449386,,-80.493123,2557,EasyGO2557,Charles St. Terminal,0
43.449238,,-80.492669,2558,EasyGO2558,Charles St. Terminal,0
43.44908,,-80.492309,2559,EasyGO2559,Charles St. Terminal,0
43.457502,,-80.460928,2396,EasyGO2396,Krug / Sherwood,0
43.455287,,-80.462488,2397,EasyGO2397,Cambridge / Sherwood,0
43.457767,,-80.448838,2394,EasyGO2394,Lorraine / Birkshire,0
43.45833,,-80.458298,2395,EasyGO2395,Krug / River,0
43.460348,,-80.44897,2392,EasyGO2392,Confederation / Carson,0
43.45852,,-80.447233,2393,EasyGO2393,Carson / Lorraine,0
43.461357,,-80.442993,2390,EasyGO2390,Confederation / Tupper,0
43.461305,,-80.446173,2391,EasyGO2391,Confederation / Amber,0
43.453465,,-80.462152,2398,EasyGO2398,Smithson / Belleview,0
43.45255,,-80.464432,2399,EasyGO2399,Belleview / Becker,0
43.462455,,-80.538915,2778,EasyGO2778,Father David Bauer,0
43.464042,,-80.540582,2779,EasyGO2779,Westmount / University,0
43.446827,,-80.475898,2649,EasyGO2649,Weber / Fairview Ave.,0
43.454447,,-80.527605,2772,EasyGO2772,Westmount / John,0
43.455893,,-80.529068,2773,EasyGO2773,Westmount / William,0
43.45684,,-80.530902,2774,EasyGO2774,Westmount / Alexandra,0
43.457417,,-80.534658,2775,EasyGO2775,Westmount / Lourdes,0
43.459078,,-80.536658,2776,EasyGO2776,Westmount / Erb,0
43.46117,,-80.538322,2777,EasyGO2777,Westmount Place,0
43.434128,,-80.496052,3076,EasyGO3076,Stirling / Mausser,0
43.494565,,-80.510352,2803,EasyGO2803,Lexington / Dunvegan,0
43.395928,,-80.324343,1428,EasyGO1428,Hespeler / Bishop,0
43.49352,,-80.504429,2800,EasyGO2800,Lee / Dunvegan,0
43.416423,,-80.450942,1858,EasyGO1858,Manitou / Webster,0
43.415633,,-80.449853,1859,EasyGO1859,Manitou / Cress,0
43.494485,,-80.504678,2801,EasyGO2801,Lee / Dansbury,0
43.416373,,-80.450643,1850,EasyGO1850,Manitou/Webster,0
43.419483,,-80.451733,1851,EasyGO1851,Fairway / Food Basics,0
43.419985,,-80.448717,1852,EasyGO1852,589 Fairway Rd. S.,0
43.42053,,-80.445617,1853,EasyGO1853,Fairway / Wilson,0
43.420873,,-80.444332,1854,EasyGO1854,Fairway / Wilson,0
43.420382,,-80.44735,1855,EasyGO1855,500 Fairway Rd.,0
43.41968,,-80.451485,1856,EasyGO1856,Fairway / Food Basics,0
43.418278,,-80.45307,1857,EasyGO1857,Manitou / Fairway,0
43.364433,,-80.29376,2172,EasyGO2172,Alison / Hilltop,0
43.36435,,-80.292267,2173,EasyGO2173,Hilltop / Franklin,0
43.368808,,-80.297187,2170,EasyGO2170,Alison / Radford,0
43.367032,,-80.29479,2171,EasyGO2171,Alison / Lauris,0
43.355755,,-80.289117,2176,EasyGO2176,Dundas / Franklin,0
43.35494,,-80.295902,2177,EasyGO2177,Elgin / Elliott,0
43.356878,,-80.286255,2174,EasyGO2174,Franklin / Green Gate,0
43.354892,,-80.287357,2175,EasyGO2175,Franklin / Dundas,0
43.353702,,-80.295403,2178,EasyGO2178,Elgin / South,0
43.351875,,-80.29467,2179,EasyGO2179,Elgin / Woolley,0
43.434355,,-80.456888,2605,EasyGO2605,First / Eckert,0
43.43463,,-80.459198,2606,EasyGO2606,Eckert / Dixon,0
43.427998,,-80.454997,2600,EasyGO2600,Wilson / Fifth,0
43.429755,,-80.455385,2601,EasyGO2601,Fourth / Wilson,0
43.431045,,-80.45468,2602,EasyGO2602,Fourth / Connaught,0
43.434425,,-80.45261,2603,EasyGO2603,Fourth / Kingsway,0
43.438057,,-80.458337,2609,EasyGO2609,Montgomery / Weber,0
43.501448,,-80.50022,1933,EasyGO1933,Lexington / Bertha,0
43.502657,,-80.49848,1932,EasyGO1932,Lexington / Malabar,0
43.5043,,-80.496627,1931,EasyGO1931,University / Lexington,0
43.441181,,-80.547371,3265,EasyGO3265,Resurrection C.S.S.,0
43.440023,,-80.551142,3264,EasyGO3264,University / Countrystone Pl.,0
43.498284,,-80.499227,1935,EasyGO1935,Dansbury / Meadowvale,0
43.443403,,-80.540043,3266,EasyGO3266,Westwood / Glasgow,0
43.445005,,-80.531147,3269,EasyGO3269,Westwood / Fernwood,0
43.44227,,-80.535675,3268,EasyGO3268,Westwood / Gallarno,0
43.48881875,,-80.49030554,1939,EasyGO1939,Auburn / Percheron,0
43.490498,,-80.491558,1938,EasyGO1938,Auburn / University,0
43.400312,,-80.331317,1424,EasyGO1424,Langs / Industrial,0
43.45837446,,-80.55782441,3465,EasyGO3465,Fischer-Hallman / Keats Way,0
43.4581939,,-80.55725524,3464,EasyGO3464,Keats Way / Fischer-Hallman,0
43.456003,,-80.561735,3463,EasyGO3463,Keats Way / Sandford Fleming,0
43.464653,,-80.57452,3460,EasyGO3460,Columbia / Bennington,0
43.400423,,-80.33158,1429,EasyGO1429,Langs / Industrial,0
43.450422,,-80.479057,2406,EasyGO2406,Krug / Rose,0
43.45385,,-80.549322,1995,EasyGO1995,Erb / Roosevelt,0
43.449822,,-80.48077,2407,EasyGO2407,Krug / Lancaster,0
43.394223,,-80.417507,1739,EasyGO1739,Old Mill / Roos,0
43.393325,,-80.414135,1738,EasyGO1738,Pinnacle / Old Mill,0
43.389633,,-80.408063,1731,EasyGO1731,Conestoga College Rec Centre,0
43.391965,,-80.404124,1733,EasyGO1733,Conestoga College Daycare,0
43.390297,,-80.403508,1732,EasyGO1732,Conestoga College Door 3,0
43.390217,,-80.413482,1735,EasyGO1735,Doon Valley / Pinnacle,0
43.391205,,-80.409805,1734,EasyGO1734,Doon Valley / Orchard Mill,0
43.391403,,-80.414752,1737,EasyGO1737,Pinnacle / Amherst,0
43.390028,,-80.415297,1736,EasyGO1736,Pinnacle / Doon Valley,0
43.40671329,,-80.50008786,3895,EasyGO3895,Fischer-Hallman / Westmount,0
43.451932,,-80.474747,2404,EasyGO2404,Krug / Lydia,0
43.4283,,-80.544532,3134,EasyGO3134,Westforest / Westmeadow,0
43.394628,,-80.46794,1807,EasyGO1807,Huron Heights S.S.,0
43.398638,,-80.467535,1806,EasyGO1806,Strasburg / Battler,0
43.401755,,-80.468572,1805,EasyGO1805,Strasburg / Trillium,0
43.383617,,-80.336123,1595,EasyGO1595,Coronation / Blue Heron,0
43.385672,,-80.33928,1594,EasyGO1594,Coronation / Oriole,0
43.378437,,-80.327413,1597,EasyGO1597,Cambridge Memorial Hospital,0
43.380667,,-80.331128,1596,EasyGO1596,Galt Country Club,0
43.38979,,-80.346618,1591,EasyGO1591,King / Bishop,0
43.402882,,-80.517938,2959,EasyGO2959,Activa / Snowdrop,0
43.38769,,-80.342343,1593,EasyGO1593,King / Blue Heron,0
43.388738,,-80.344435,1592,EasyGO1592,King / Brower,0
43.404262,,-80.50315,2954,EasyGO2954,Max Becker / Commonwealth,0
43.403603,,-80.50743,2955,EasyGO2955,Max Becker / Copper Leaf,0
43.403077,,-80.509797,2956,EasyGO2956,Activa / Donnenwerth,0
43.402197,,-80.512098,2957,EasyGO2957,Activa / Periwinkle,0
43.374763,,-80.32115,1599,EasyGO1599,Coronation / Wright,0
43.37691,,-80.324802,1598,EasyGO1598,Coronation / Islandview,0
43.409005,,-80.49868,2952,EasyGO2952,Tillsley / Westmount,0
43.405715,,-80.50051,2953,EasyGO2953,Max Becker / Fischer-Hallman,0
43.448917,,-80.428858,1025,EasyGO1025,Edenbridge / Oldfield,0
43.448642,,-80.433355,1024,EasyGO1024,Edenbridge / Darlington,0
43.453003,,-80.430713,1027,EasyGO1027,Oldfield / Casey,0
43.450825,,-80.429715,1026,EasyGO1026,Oldfield / Batterswood,0
43.445825,,-80.437942,1021,EasyGO1021,Kenora / Parkview,0
43.444812,,-80.439733,1020,EasyGO1020,Kenora / Wren,0
43.447793,,-80.436033,1023,EasyGO1023,Old Chicopee / Edenbridge,0
43.447135,,-80.435653,1022,EasyGO1022,Kenora / Old Chicopee,0
43.403293,,-80.484252,1800,EasyGO1800,Mcintyre / Trillium,0
43.454457,,-80.433667,1029,EasyGO1029,Shaftsbury / Ottawa,0
43.453703,,-80.43213,1028,EasyGO1028,Shaftsbury / Holborn,0
43.506061,,-80.52799,1209,EasyGO1209,151 Frobisher Dr.,0
43.505358,,-80.529208,1208,EasyGO1208,Frobisher / Davenport,0
43.499948,,-80.52561,1205,EasyGO1205,Davenport / Old Abbey,0
43.502517,,-80.52807,1204,EasyGO1204,Davenport / Northfield,0
43.503923,,-80.528718,1207,EasyGO1207,Davenport / Northfield,0
43.500237,,-80.537123,1201,EasyGO1201,Northfield / Conestogo,0
43.496948,,-80.54621,1200,EasyGO1200,Northfield / Parkside,0
43.501425,,-80.533822,1202,EasyGO1202,Northfield / King,0
43.443022,,-80.49345,3108,EasyGO3108,Mill / Queen,0
43.452308,,-80.498568,3109,EasyGO3109,Victoria / King,0
43.435898,,-80.4922,3104,EasyGO3104,Stirling / Lorne,0
43.438677,,-80.492817,3105,EasyGO3105,Highland / Spadina,0
43.43891678,,-80.49101437,3106,EasyGO3106,Spadina / Mill,0
43.440492,,-80.490718,3107,EasyGO3107,Mill / Lansdowne,0
43.429513,,-80.496655,3100,EasyGO3100,Greenbrook / Stirling,0
43.432833,,-80.496008,3101,EasyGO3101,Stirling / Lakeside Pk.,0
43.433675,,-80.495942,3102,EasyGO3102,Stirling / Mausser,0
43.435333,,-80.49378,3103,EasyGO3103,Stirling / Lorne,0
43.389022,,-80.340902,1447,EasyGO1447,Fairview / Grand Valley,0
43.471615,,-80.581587,1110,EasyGO1110,Laurelwood / Beaver Crk. Cr.,0
43.472557,,-80.571113,1113,EasyGO1113,Path To Laurel Gate,0
43.474318,,-80.574573,1112,EasyGO1112,Laurelwood / Laurel Gate,0
43.39108,,-80.349227,1443,EasyGO1443,King / Montrose,0
43.392543,,-80.357517,1442,EasyGO1442,Lowther / Hamilton,0
43.469093,,-80.561785,1117,EasyGO1117,Columbia / Beechlawn,0
43.391183,,-80.364293,1440,EasyGO1440,Preston H.S.,0
43.471385,,-80.55546,1119,EasyGO1119,Columbia / Ron Eydt Village,0
43.469858,,-80.559685,1118,EasyGO1118,Columbia / Old Post,0
43.38761,,-80.337572,1449,EasyGO1449,Dunbar / St. George,0
43.387988,,-80.341603,1448,EasyGO1448,Dunbar / Grand Valley,0
43.393492,,-80.27774,1350,EasyGO1350,Saginaw / Granite Hill,0
43.42122453,,-80.30496719,3922,EasyGO3922,Winston / Gunn,0
43.42162639,,-80.30178511,3923,EasyGO3923,Winston / Karl,0
43.45174835,,-80.52536149,3920,EasyGO3920,Westmount / Union,0
43.42135878,,-80.31059817,3921,EasyGO3921,Winston / Franklin,0
43.42588935,,-80.29386548,3926,EasyGO3926,Cooper / Adler,0
43.42757117,,-80.29674236,3927,EasyGO3927,Ellis / Cooper,0
43.42121433,,-80.29777978,3924,EasyGO3924,Winston / Handorf,0
43.42211744,,-80.29244443,3925,EasyGO3925,Winston / Cooper,0
43.42813027,,-80.29383239,3928,EasyGO3928,Ellis / Mclaughlin,0
43.42899915,,-80.28880628,3929,EasyGO3929,Ellis / Kerwood,0
43.425118,,-80.419762,1565,EasyGO1565,King / River,0
43.441746,,-80.313094,3856,EasyGO3856,Baldwin / Scott,0
43.426838,,-80.309961,3857,EasyGO3857,Franklin / Edward,0
43.44562,,-80.306557,3854,EasyGO3854,Baldwin / Henwood,0
43.441675,,-80.307278,3855,EasyGO3855,Baldwin / Silverthorne,0
43.449195,,-80.307709,3852,EasyGO3852,Baldwin / Osgoode,0
43.447597,,-80.307184,3853,EasyGO3853,Baldwin / Horton,0
43.394304,,-80.329605,3850,EasyGO3850,Bishop / Industrial,0
43.394335,,-80.328684,3851,EasyGO3851,Bishop / Industrial,0
43.389283,,-80.328698,3858,EasyGO3858,Dunbar / Industrial,0
43.410622,,-80.399815,1567,EasyGO1567,King / Deer Ridge,0
43.455993,,-80.562198,1974,EasyGO1974,Keats Way / Sandford Fleming,0
43.342228,,-80.293497,2288,EasyGO2288,Myers / Greenbrier,0
43.3426,,-80.2912,2289,EasyGO2289,Myers / Cheese Factory,0
43.4935,,-80.5085,3678,EasyGO3678,Dunvegan / Bairstow,0
43.4959,,-80.502,3679,EasyGO3679,Dansbury / Bridge,0
43.4901,,-80.4947,3672,EasyGO3672,Bridge / University,0
43.4929,,-80.4977,3673,EasyGO3673,Bridge / Crimson,0
43.4956,,-80.4905,3670,EasyGO3670,University / Wismer,0
43.4919,,-80.4913,3671,EasyGO3671,University / Pastern,0
43.4936,,-80.5084,3676,EasyGO3676,Dunvegan / Bairstow,0
43.4945,,-80.5102,3677,EasyGO3677,Lexington / Dunvegan,0
43.4958,,-80.5024,3674,EasyGO3674,Dansbury / Eiwo,0
43.4947,,-80.5047,3675,EasyGO3675,Dansbury / Lee,0
43.455042,,-80.505262,2543,EasyGO2543,King / Agnes,0
43.455825,,-80.507668,2542,EasyGO2542,King / Central Fresh Market,0
43.456932,,-80.511155,2540,EasyGO2540,Grand River Hospital,0
43.449148,,-80.491925,2547,EasyGO2547,Charles St. Terminal,0
43.449412,,-80.492551,2546,EasyGO2546,Charles St. Terminal,0
43.449496,,-80.492761,2545,EasyGO2545,Charles St. Terminal,0
43.454393,,-80.503203,2544,EasyGO2544,King / Wellington,0
43.449074,,-80.491859,2549,EasyGO2549,Charles St. Terminal,0
43.449035,,-80.491684,2548,EasyGO2548,Charles St. Terminal,0
43.46401,,-80.576783,1104,EasyGO1104,Columbia / Cavendish,0
43.449298,,-80.442323,2381,EasyGO2381,Holborn / Holborn Ct.,0
43.45004,,-80.440307,2380,EasyGO2380,65 Holborn Dr.,0
43.450328,,-80.439693,2383,EasyGO2383,Holborn / Old Chicopee,0
43.449358,,-80.441768,2382,EasyGO2382,Holborn / Holborn Ct.,0
43.457507,,-80.432275,2385,EasyGO2385,Lackner / Ottawa,0
43.452063,,-80.440472,2384,EasyGO2384,Old Chicopee / Ottawa,0
43.461667,,-80.438328,2387,EasyGO2387,Lorraine / Wimbleton,0
43.45913,,-80.434871,2386,EasyGO2386,Lackner / Banbury,0
43.460342,,-80.442357,2389,EasyGO2389,Confederation / Lorraine,0
43.460862,,-80.439878,2388,EasyGO2388,Lorraine / Heritage,0
43.455165,,-80.493923,3580,EasyGO3580,Weber / Via Rail Station,0
43.47231381,,-80.52427451,3581,EasyGO3581,King / Ezra,0
43.453741,,-80.522501,2769,EasyGO2769,Union / Dunbar,0
43.455053,,-80.519694,2768,EasyGO2768,Union / Severn,0
43.472128,,-80.595332,3584,EasyGO3584,Sir John A Macdonald S.S. 1,0
43.464462,,-80.56321,3585,EasyGO3585,Fischer-Hallman / Roxton,0
43.455348,,-80.55564,3587,EasyGO3587,Fischer-Hallman / Winchester,0
43.445182,,-80.512882,2763,EasyGO2763,Belmont / Karn,0
43.464499,,-80.541456,3589,EasyGO3589,University / Westmount,0
43.451441,,-80.516842,5009,EasyGO5009,Belmont / Glasgow,0
43.441035,,-80.509133,2760,EasyGO2760,Belmont / Metzloff,0
43.453589,,-80.517951,2767,EasyGO2767,Belmont / Claremont,0
43.451808,,-80.51683,2766,EasyGO2766,Belmont / Glasgow,0
43.45016,,-80.515742,2765,EasyGO2765,564 Belmont Ave.,0
43.447733,,-80.514148,2764,EasyGO2764,Belmont / Gage,0
43.412547,,-80.4501,1849,EasyGO1849,Bleams / Manitou,0
43.412212,,-80.452405,1848,EasyGO1848,Bleams / Otonabee,0
43.402655,,-80.469412,1843,EasyGO1843,1455 Strasburg Rd.,0
43.400947,,-80.467867,1842,EasyGO1842,Strasburg / Trillium,0
43.398702,,-80.467292,1841,EasyGO1841,Strasburg / Battler,0
43.394878,,-80.46784,1840,EasyGO1840,Huron Heights S.S.,0
43.41035,,-80.459887,1847,EasyGO1847,Bleams / Homer Watson,0
43.408898,,-80.46561,1846,EasyGO1846,Bleams / Century Hill,0
43.405985,,-80.474382,1845,EasyGO1845,Strasburg / Shoemaker,0
43.404563,,-80.473608,1844,EasyGO1844,Strasburg / Mcintyre,0
43.368168,,-80.300328,2169,EasyGO2169,Alison / Elgin,0
43.366563,,-80.300438,2168,EasyGO2168,Elgin / Marion,0
43.360845,,-80.298112,2165,EasyGO2165,Elgin / Dundas,0
43.358893,,-80.297777,2164,EasyGO2164,Pollock / Elgin,0
43.365038,,-80.299832,2167,EasyGO2167,Elgin / Manchester,0
43.362018,,-80.298598,2166,EasyGO2166,Elgin / Linnwood,0
43.358565,,-80.30246,2161,EasyGO2161,Rich / Lincoln,0
43.357267,,-80.30718,2160,EasyGO2160,Oak / Main,0
43.358412,,-80.300123,2163,EasyGO2163,Pollock / Chalmers,0
43.357968,,-80.301578,2162,EasyGO2162,Pollock / Lincoln,0
43.433875,,-80.43499,2617,EasyGO2617,Kinzie / Guerin,0
43.432992,,-80.436478,2616,EasyGO2616,Kinzie / Walker,0
43.432085,,-80.438048,2615,EasyGO2615,Kinzie / Weber,0
43.433322,,-80.441387,2614,EasyGO2614,Weber / Fergus,0
43.433353,,-80.444067,2613,EasyGO2613,Weber / Arlington,0
43.434313,,-80.447392,2612,EasyGO2612,Weber / Franklin,0
43.43558,,-80.45114,2611,EasyGO2611,Weber / Dellroy,0
43.436393,,-80.453613,2610,EasyGO2610,Weber / Wilfred,0
43.444945,,-80.531647,3254,EasyGO3254,Westwood / Knell,0
43.434085,,-80.431283,2619,EasyGO2619,Thaler / Kinzie,0
43.435455,,-80.432897,2618,EasyGO2618,Kinzie / Thaler,0
43.434167,,-80.508267,3298,EasyGO3298,Queens / Hahn,0
43.433278,,-80.510848,3299,EasyGO3299,Queens / Westmount,0
43.465333,,-80.522305,1908,EasyGO1908,King / Erb,0
43.467892,,-80.523,1909,EasyGO1909,King / Bridgeport,0
43.439215,,-80.50004,3294,EasyGO3294,Queens / Spadina,0
43.438515,,-80.501655,3295,EasyGO3295,Queens / St. Marys Hospital,0
43.43667,,-80.50353,3296,EasyGO3296,Queens / Belmont,0
43.435275,,-80.505955,3297,EasyGO3297,Queens / Community Trail,0
43.458475,,-80.515339,1902,EasyGO1902,King / Union,0
43.454498,,-80.501023,3292,EasyGO3292,Moore / Breithaupt,0
43.440382,,-80.498818,3293,EasyGO3293,Queens / Highland,0
43.457547,,-80.576227,3456,EasyGO3456,Erbsville / Leighland,0
43.464902,,-80.584188,3454,EasyGO3454,Erbsville / Columbia Forest,0
43.462255,,-80.581285,3455,EasyGO3455,Erbsville / Columbia,0
43.4873,,-80.556698,1186,EasyGO1186,Toll Gate / Glen Forrest,0
43.485683,,-80.551702,1184,EasyGO1184,Cedarbrae / Glen Forrest,0
43.439752,,-80.446367,2858,EasyGO2858,Franklin / Trafalgar,0
43.401493,,-80.485648,1799,EasyGO1799,Trillium / Washburn,0
43.430535,,-80.486868,3063,EasyGO3063,Hoffman / Highland,0
43.433473,,-80.489007,3062,EasyGO3062,Heiman / Highland,0
43.434582,,-80.487143,3061,EasyGO3061,Heiman / Kehl,0
43.435428,,-80.485685,3060,EasyGO3060,Heiman / Mill,0
43.431788,,-80.479768,3067,EasyGO3067,Hoffman / Ottawa,0
43.431985,,-80.480962,3066,EasyGO3066,Hoffman / Donley,0
43.431972,,-80.482695,3065,EasyGO3065,Hoffman / Meinzinger,0
43.431255,,-80.484925,3064,EasyGO3064,Hoffman / Kehl,0
43.405108,,-80.489425,2947,EasyGO2947,Erinbrook / Hedgestone,0
43.406173,,-80.487043,2946,EasyGO2946,Erinbrook / Pipers Green,0
43.444733,,-80.49452,3069,EasyGO3069,Queen / Schneider,0
43.44715,,-80.491977,3068,EasyGO3068,Queen / St. George,0
43.410848,,-80.482708,2943,EasyGO2943,Rittenhouse / Tuerr,0
43.412772,,-80.482963,2942,EasyGO2942,Rittenhouse / Brookfield,0
43.416687,,-80.480903,2941,EasyGO2941,Strasburg / Blackhorne,0
43.41872,,-80.483175,2940,EasyGO2940,Strasburg / Selkirk,0
43.432223,,-80.42991,1050,EasyGO1050,Fairway / Thaler,0
43.433375,,-80.428873,1051,EasyGO1051,Fairway / Grulke,0
43.435613,,-80.42759,1052,EasyGO1052,Fairway / North Hill,0
43.441452,,-80.417823,1053,EasyGO1053,Fairway / Fairway Cr.,0
43.44449,,-80.415998,1054,EasyGO1054,Lackner / Corfield,0
43.446927,,-80.420418,1055,EasyGO1055,Lackner / Daimler,0
43.449727,,-80.42365,1056,EasyGO1056,Lackner / Zeller,0
43.456417,,-80.432047,1057,EasyGO1057,Ottawa / Oldfield,0
43.45361,,-80.432197,1058,EasyGO1058,Shaftsbury / Holborn,0
43.452395,,-80.430773,1059,EasyGO1059,Oldfield / Jadestone,0
43.434643,,-80.42857,1696,EasyGO1696,River / Fairway,0
43.420553,,-80.44274,1697,EasyGO1697,Wilson / Fairway,0
43.438962,,-80.433197,1694,EasyGO1694,River / Old Chicopee,0
43.436615,,-80.43066,1695,EasyGO1695,River / Kinzie,0
43.451828,,-80.441787,1692,EasyGO1692,Ottawa / Breckenridge,0
43.442938,,-80.439112,1693,EasyGO1693,River / Rennie,0
43.453987,,-80.435492,1690,EasyGO1690,Ottawa / Mcgee,0
43.45284,,-80.438895,1691,EasyGO1691,Ottawa / Montcalm,0
43.42274,,-80.445072,2595,EasyGO2595,Wilson / Balfour,0
43.416237,,-80.442388,1698,EasyGO1698,Wilson / Webster,0
43.413463,,-80.442477,1699,EasyGO1699,Wilson/Kuntz Electroplating,0
43.419118,,-80.326117,1278,EasyGO1278,Groh / Holiday Inn,0
43.421505,,-80.31098,1270,EasyGO1270,Winston / Scottdale,0
43.421907,,-80.314563,1271,EasyGO1271,Winston / Hipel,0
43.424145,,-80.316075,1272,EasyGO1272,Winston / Edward,0
43.426893,,-80.318827,1273,EasyGO1273,Winston / Queen,0
43.424292,,-80.32333,1274,EasyGO1274,Queen / Rooshill,0
43.41879,,-80.325147,1275,EasyGO1275,Holiday Inn / Groh,0
43.419163,,-80.326232,1276,EasyGO1276,Groh / Holiday Inn,0
43.419323,,-80.325685,1277,EasyGO1277,Groh / Holiday Inn,0
43.418353,,-80.53508,3333,EasyGO3333,Westheights / Driftwood Ctr.,0
43.44069,,-80.526673,3119,EasyGO3119,Chopin / Hazelglen,0
43.419118,,-80.538958,3332,EasyGO3332,Driftwood / Westheights,0
43.439743,,-80.520727,3117,EasyGO3117,Victoria / Westmount,0
43.44068,,-80.517703,3116,EasyGO3116,Victoria / Paulander,0
43.441828,,-80.515257,3115,EasyGO3115,Victoria / Alice,0
43.443015,,-80.512288,3114,EasyGO3114,Victoria / Belmont,0
43.444337,,-80.508725,3113,EasyGO3113,Victoria / Patricia,0
43.417263,,-80.54062,3331,EasyGO3331,Driftwood / Rolling Meadows,0
43.449512,,-80.50142,3111,EasyGO3111,Victoria / Bramm,0
43.45078,,-80.500063,3110,EasyGO3110,Victoria / Joseph,0
43.3687,,-80.316888,1472,EasyGO1472,Water / Samuelson,0
43.37064,,-80.317547,1473,EasyGO1473,Galt C.I.,0
43.363688,,-80.314085,1470,EasyGO1470,Ainslie / Park Hill,0
43.416327,,-80.542825,3330,EasyGO3330,Highview / Highview Place,0
43.381383,,-80.31968,1476,EasyGO1476,167 Hespeler Rd.,0
43.395792,,-80.323905,1477,EasyGO1477,Hespeler / Bishop,0
43.372143,,-80.318095,1474,EasyGO1474,Water / Todd,0
43.376922,,-80.31854,1475,EasyGO1475,Hespeler / Avenue,0
43.420658,,-80.524857,3337,EasyGO3337,Mcgarry / Meadowbrook,0
43.398573,,-80.324797,1478,EasyGO1478,499 Hespeler Rd.,0
43.400472,,-80.325418,1479,EasyGO1479,Hespeler / Langs,0
43.419918,,-80.526953,3336,EasyGO3336,Mcgarry / Forestwood,0
43.43906,,-80.32024,1304,EasyGO1304,Scott / Milton,0
43.441417,,-80.317413,1305,EasyGO1305,Poplar / Scott,0
43.445409,,-80.316205,1306,EasyGO1306,Poplar / Dawn,0
43.436957,,-80.312165,1307,EasyGO1307,Guelph / Fisher Mills,0
43.434447,,-80.311528,1300,EasyGO1300,Guelph / Sheffield,0
43.419442,,-80.528395,3335,EasyGO3335,Mcgarry / Royal Orchard,0
43.435448,,-80.320128,1302,EasyGO1302,Fisher Mills / Scott,0
43.43752,,-80.321073,1303,EasyGO1303,Scott / Nickolas,0
43.419178,,-80.532307,3334,EasyGO3334,Westheights / Lorilee,0
43.434915,,-80.311715,1308,EasyGO1308,Guelph / Sheffield,0
43.430485,,-80.309755,1309,EasyGO1309,Adam / Tannery,0
43.425007,,-80.449325,2597,EasyGO2597,Wilson / Woodhaven,0
43.372852,,-80.285292,1499,EasyGO1499,Dobbie / Clyde,0
43.431055,,-80.454008,2590,EasyGO2590,Connaught / Fifth,0
43.42916,,-80.455892,2591,EasyGO2591,Fourth / Wilson,0
43.426873,,-80.453045,2592,EasyGO2592,Wilson / Franklin,0
43.424467,,-80.448563,2593,EasyGO2593,Wilson / Fairlawn,0
43.41653631,,-80.38718713,3939,EasyGO3939,Maple Grove / Cherry Blossom,0
43.41280927,,-80.37510333,3935,EasyGO3935,Cherry Blossom / Fountain,0
43.40375819,,-80.36998921,3934,EasyGO3934,Fountain / Marmel,0
43.41580747,,-80.384197,3937,EasyGO3937,Cherry Blossom / Barnes,0
43.41420404,,-80.37992952,3936,EasyGO3936,Cherry Blossom / Saltsman,0
43.4235277,,-80.28729943,3931,EasyGO3931,Jamieson / Lardner,0
43.42496127,,-80.28571255,3930,EasyGO3930,Jamieson / Townline,0
43.4217898,,-80.28857337,3932,EasyGO3932,Jamieson / Patton,0
43.5154,,-80.5576,3841,EasyGO3841,King / Lobsinger,0
43.55407,,-80.555247,3840,EasyGO3840,Arthur / Gerrat,0
43.394361,,-80.464395,3843,EasyGO3843,Huron / Templewood,0
43.51808,,-80.513429,3842,EasyGO3842,University / R.I.M.,0
43.394525,,-80.316688,3845,EasyGO3845,Conestoga Transit Garage,0
43.394542,,-80.464009,3844,EasyGO3844,Huron / Templewood,0
43.503584,,-80.535701,3847,EasyGO3847,King / Northland,0
43.425376,,-80.372999,3849,EasyGO3849,Maple Grove / Vondrau,0
43.503824,,-80.535628,3848,EasyGO3848,King / Northland,0
43.49194633,,-80.49095745,3665,EasyGO3665,University / Pastern,0
43.4392,,-80.5537,3664,EasyGO3664,University / Countrystone Dr.,0
43.4975,,-80.4929,3667,EasyGO3667,Auburn / Bronco,0
43.4952,,-80.49,3666,EasyGO3666,University / Wismer,0
43.4344,,-80.4588,3661,EasyGO3661,Eckert / Dixon,0
43.3945,,-80.303,3660,EasyGO3660,Franklin / Can-Amera,0
43.437848,,-80.557482,3663,EasyGO3663,University / Baker,0
43.437591,,-80.55871511,3662,EasyGO3662,University / Baker,0
43.340192,,-80.306097,2280,EasyGO2280,Myers / Woodland,0
43.339282,,-80.307928,2281,EasyGO2281,Edgemere / Sandalwood,0
43.338035,,-80.307013,2282,EasyGO2282,Edgemere / Ploughmans,0
43.335867,,-80.306327,2283,EasyGO2283,Edgemere / Langlaw,0
43.4976,,-80.492,3669,EasyGO3669,Auburn / University,0
43.338007,,-80.29948,2285,EasyGO2285,Christopher / Wheatland,0
43.340515,,-80.300523,2286,EasyGO2286,Christopher / Myers,0
43.3415,,-80.297702,2287,EasyGO2287,Myers / Lorraine,0
43.429878,,-80.450621,2578,EasyGO2578,Connaught / Franklin,0
43.431368,,-80.454597,2576,EasyGO2576,Fourth / Connaught,0
43.430572,,-80.452806,2577,EasyGO2577,Connaught / Sixth,0
43.434252,,-80.452805,2575,EasyGO2575,Fourth / Kingsway,0
43.437975,,-80.462012,2572,EasyGO2572,King / Rockway Gardens,0
43.434548,,-80.456578,2573,EasyGO2573,First / Eckert,0
43.440959,,-80.469511,2570,EasyGO2570,King / Sydney,0
43.439763,,-80.466372,2571,EasyGO2571,King / Rockway Ctr.,0
43.45926,,-80.435245,2378,EasyGO2378,Lackner / Banbury,0
43.451223,,-80.439905,2379,EasyGO2379,Old Chicopee / Holborn,0
43.45877,,-80.447307,2374,EasyGO2374,Carson / Lorraine,0
43.460125,,-80.448832,2375,EasyGO2375,Carson / Confederation,0
43.461218,,-80.446023,2376,EasyGO2376,Confederation / Amber,0
43.461745,,-80.437253,2377,EasyGO2377,Lorraine / Lackner,0
43.456022,,-80.462377,2370,EasyGO2370,Krug / Eton,0
43.457235,,-80.461087,2371,EasyGO2371,Krug / Sherwood,0
43.458326,,-80.457814,2372,EasyGO2372,Krug / River,0
43.457825,,-80.448255,2373,EasyGO2373,Lorraine / Birkshire,0
43.5119903,,-80.52253964,3593,EasyGO3593,Bridge / Frobisher,0
43.50591,,-80.535415,3592,EasyGO3592,Northland / Frobisher,0
43.423913,,-80.447103,2596,EasyGO2596,Traynor / Wilson,0
43.4527,,-80.55381,3590,EasyGO3590,Fischer-Hallman / Erb,0
43.51495,,-80.49962,3597,EasyGO3597,Path To Angler,0
43.516365,,-80.501177,3596,EasyGO3596,University / Parkwood Manor,0
43.51108,,-80.50092,3595,EasyGO3595,New Bedford / Eastbridge,0
43.510612,,-80.50429,3594,EasyGO3594,New Bedford / Starboard,0
43.510068,,-80.50566,3599,EasyGO3599,New Bedford / Chesapeake,0
43.510665,,-80.504433,3598,EasyGO3598,New Bedford / Starboard,0
43.426813,,-80.452782,2599,EasyGO2599,Wilson / Franklin,0
43.437128,,-80.454733,1876,EasyGO1876,Weber / Ross,0
43.437745,,-80.45874,1877,EasyGO1877,Montgomery / Weber,0
43.43561,,-80.450977,1874,EasyGO1874,Weber / Euler,0
43.436287,,-80.453045,1875,EasyGO1875,Weber / Wilfred,0
43.433647,,-80.444558,1872,EasyGO1872,Weber / Arlington,0
43.434513,,-80.447507,1873,EasyGO1873,Weber / Franklin,0
43.432485,,-80.43931,1870,EasyGO1870,Weber / Kinzie,0
43.433675,,-80.442185,1871,EasyGO1871,Weber / Fergus,0
43.437505,,-80.460237,1878,EasyGO1878,King / Montgomery,0
43.362743,,-80.296988,2118,EasyGO2118,Lauris / Linnwood,0
43.36271,,-80.300677,2119,EasyGO2119,Dundas / Dundas Lane,0
43.37394,,-80.303458,2110,EasyGO2110,Elgin / Galt,0
43.372402,,-80.302885,2111,EasyGO2111,Elgin / Bronson,0
43.370977,,-80.299903,2112,EasyGO2112,Clyde / Mill Creek,0
43.370785,,-80.295112,2113,EasyGO2113,Franklin / Clyde,0
43.367685,,-80.293018,2114,EasyGO2114,470 Franklin Blvd.,0
43.365368,,-80.292183,2115,EasyGO2115,Franklin / Savage,0
43.364393,,-80.292462,2116,EasyGO2116,Hilltop / Franklin,0
43.363898,,-80.29488,2117,EasyGO2117,Hilltop / Alison,0
43.429513,,-80.435175,2622,EasyGO2622,King / Kingsbury,0
43.430618,,-80.43721,2623,EasyGO2623,Weber / Hwy 8 Ramp,0
43.432785,,-80.429758,2620,EasyGO2620,Thaler / Fairway,0
43.428915,,-80.433215,2621,EasyGO2621,King / Morgan,0
43.440142,,-80.446385,2626,EasyGO2626,Franklin / Trafalgar,0
43.441233,,-80.446843,2627,EasyGO2627,Franklin / Kenneth,0
43.436072,,-80.446872,2624,EasyGO2624,Franklin / Prospect,0
43.437875,,-80.445795,2625,EasyGO2625,Franklin / Shuh,0
43.443235,,-80.447703,2628,EasyGO2628,Franklin / Dalewood,0
43.444665,,-80.448343,2629,EasyGO2629,Franklin / Bradley,0
43.494987,,-80.528827,1919,EasyGO1919,King / Hwy 85 Ramp,0
43.491207,,-80.528023,1918,EasyGO1918,King / Manulife,0
43.471913,,-80.523932,1911,EasyGO1911,King / Marshall,0
43.470105,,-80.523578,1910,EasyGO1910,King / Elgin,0
43.47604,,-80.52479,1913,EasyGO1913,King / University,0
43.460602,,-80.514108,3284,EasyGO3284,Union / Herbert,0
43.459452,,-80.514837,3283,EasyGO3283,Union / Mary,0
43.458278,,-80.515557,3282,EasyGO3282,Union / King,0
43.457445,,-80.516048,3281,EasyGO3281,Union / Park,0
43.484995,,-80.526667,1916,EasyGO1916,King / Weber,0
43.46719272,,-80.56595141,3445,EasyGO3445,Fischer-Hallman / Columbia,0
43.509732,,-80.516098,3444,EasyGO3444,Chesapeake / Spinnaker,0
43.450895,,-80.57024,3447,EasyGO3447,Royal Beech / Erbsville,0
43.455112,,-80.573673,3446,EasyGO3446,Erbsville / Keats Way,0
43.511678,,-80.510272,3443,EasyGO3443,Chesapeake / Seawind,0
43.50671,,-80.508917,3442,EasyGO3442,Chesapeake / Mariner,0
43.486075,,-80.486767,2024,EasyGO2024,Bridle / Dartmoor,0
43.487045,,-80.485708,2025,EasyGO2025,Auburn / Exmoor,0
43.488975,,-80.490265,2026,EasyGO2026,Auburn / Percheron,0
43.49065,,-80.491592,2027,EasyGO2027,Auburn / University,0
43.477923,,-80.484325,2020,EasyGO2020,Lancaster / Lang,0
43.479285,,-80.484325,2021,EasyGO2021,Lancaster / General,0
43.482795,,-80.484398,2022,EasyGO2022,Bridge / Woolwich,0
43.442625,,-80.486487,2751,EasyGO2751,Courtland / Madison,0
43.478745,,-80.508278,2828,EasyGO2828,Lincoln / Margaret,0
43.440708,,-80.505272,2758,EasyGO2758,Highland / Patricia,0
43.440023,,-80.507973,2759,EasyGO2759,Belmont / Highland,0
43.47485662,,-80.4394553,3147,EasyGO3147,Shirley / Hesh,0
43.430587,,-80.525404,2979,EasyGO2979,Highland Hills Mall Terminal,0
43.432938,,-80.488807,3058,EasyGO3058,Highland / Heiman,0
43.43439778,,-80.48724003,3059,EasyGO3059,Heiman / Kehl,0
43.425792,,-80.521238,2972,EasyGO2972,Forest Heights C.I.,0
43.427142,,-80.522302,2973,EasyGO2973,Fischer-Hallman / Summit,0
43.421388,,-80.516335,2970,EasyGO2970,Fischer-Hallman / Greenbrook,0
43.42342,,-80.51881,2971,EasyGO2971,Fischer-Hallman / Mcgarry,0
43.43063,,-80.525534,2976,EasyGO2976,Highland Hills Mall Terminal,0
43.430776,,-80.525639,2977,EasyGO2977,Highland Hills Mall Terminal,0
43.430328,,-80.525318,2974,EasyGO2974,Highland Hills Mall Terminal,0
43.430482,,-80.525418,2975,EasyGO2975,Highland Hills Mall Terminal,0
43.427547,,-80.432882,1043,EasyGO1043,Fairway / King,0
43.428827,,-80.432143,1042,EasyGO1042,Fairway / King,0
43.430213,,-80.431948,1041,EasyGO1041,Fairway / Morgan,0
43.433277,,-80.429143,1040,EasyGO1040,Fairway / Grulke,0
43.424008,,-80.434677,1047,EasyGO1047,Fairway / Walmart,0
43.422838,,-80.440838,1046,EasyGO1046,Fairview Park Terminal,0
43.421823,,-80.439085,1045,EasyGO1045,Fairway / Fairview Park,0
43.422715,,-80.437213,1044,EasyGO1044,Fairway / Wabanaki,0
43.430452,,-80.431652,1049,EasyGO1049,Fairway / Morgan,0
43.428883,,-80.431855,1048,EasyGO1048,Fairway / King,0
43.465643,,-80.44647,1681,EasyGO1681,Natchez / Matthew,0
43.41815,,-80.473332,3027,EasyGO3027,Kingswood / Block Line,0
43.461787,,-80.445658,1683,EasyGO1683,Halifax / Confederation,0
43.463528,,-80.445557,1682,EasyGO1682,Halifax / Natchez,0
43.460782,,-80.439733,1685,EasyGO1685,Lorraine / Heritage,0
43.460242,,-80.442412,1684,EasyGO1684,Confederation / Lorraine,0
43.463475,,-80.431728,1687,EasyGO1687,Keewatin / Glencliffe,0
43.464982,,-80.436105,1686,EasyGO1686,Keewatin / Lackner,0
43.454482,,-80.434392,1689,EasyGO1689,Ottawa / Shaftsbury,0
43.460802,,-80.42782,1688,EasyGO1688,Keewatin / Ottawa,0
43.420845,,-80.475112,3025,EasyGO3025,Kingswood / Gracefield,0
43.421747,,-80.307085,1269,EasyGO1269,Winston / Westbury,0
43.421378,,-80.304445,1268,EasyGO1268,Winston / Gunn,0
43.42788096,,-80.29793995,1263,EasyGO1263,Cooper / Phin,0
43.42968718,,-80.30035497,1262,EasyGO1262,Cooper / Rife,0
43.429325,,-80.304797,1261,EasyGO1261,Rife / Kribs,0
43.42965,,-80.30826,1260,EasyGO1260,Adam / Bergey,0
43.421762,,-80.301917,1267,EasyGO1267,Winston / Karl,0
43.421323,,-80.29779,1266,EasyGO1266,Winston / Darren,0
43.422132,,-80.292838,1265,EasyGO1265,Winston / Cooper,0
43.42558,,-80.293662,1264,EasyGO1264,Cooper / Adler,0
43.43811,,-80.294027,1242,EasyGO1242,Mcmeeken / Werstine,0
43.421432,,-80.48456,3021,EasyGO3021,Kingswood / Lucerne,0
43.462943,,-80.510807,3286,EasyGO3286,Moore / Union,0
43.420998,,-80.485432,3020,EasyGO3020,Strasburg / Kingswood,0
43.462668,,-80.51234,3285,EasyGO3285,Union / Lucan,0
43.437527,,-80.526728,3128,EasyGO3128,Victoria / Fenwick,0
43.436318,,-80.52972,3129,EasyGO3129,Victoria / Fischer-Hallman,0
43.440225,,-80.534303,3122,EasyGO3122,Ingleside / Hazelglen,0
43.481803,,-80.526007,1915,EasyGO1915,King / Columbia,0
43.44074,,-80.527032,3120,EasyGO3120,Victoria Hills Plaza,0
43.44148,,-80.53157,3121,EasyGO3121,Hazelglen / Markwood,0
43.438627,,-80.524195,3126,EasyGO3126,Hazelglen / Victoria,0
43.440447,,-80.528352,3124,EasyGO3124,Dalegrove / Ingleside,0
43.477728,,-80.525157,1914,EasyGO1914,King / Hickory,0
43.361892,,-80.313522,1469,EasyGO1469,Ainslie / Colborne,0
43.487478,,-80.527263,1917,EasyGO1917,King / Blue Springs,0
43.364768,,-80.3143,1465,EasyGO1465,Ainslie / Simcoe,0
43.36981,,-80.317463,1464,EasyGO1464,Galt C.I.,0
43.359987,,-80.313678,1467,EasyGO1467,Ainslie / Dickson,0
43.362708,,-80.314153,1466,EasyGO1466,Ainslie / Park Hill,0
43.379808,,-80.319585,1461,EasyGO1461,Hespeler / Wilmot,0
43.381163,,-80.319957,1460,EasyGO1460,Hespeler / Wauchope,0
43.372382,,-80.318462,1463,EasyGO1463,Water / Augusta,0
43.377242,,-80.319012,1462,EasyGO1462,Hespeler / Jaffray,0
43.417515,,-80.324265,1317,EasyGO1317,Heritage Bible College,0
43.416512,,-80.321533,1316,EasyGO1316,The Holiday Inn,0
43.417205,,-80.31662,1315,EasyGO1315,Jacob Hespeler S.S.,0
43.417987,,-80.31196,1314,EasyGO1314,Holiday Inn / Cheval,0
43.421783,,-80.31037,1313,EasyGO1313,Franklin / Winston,0
43.424335,,-80.310203,1312,EasyGO1312,Franklin / Thomas,0
43.42910151,,-80.30965272,1310,EasyGO1310,Franklin / Shamrock,0
43.394842,,-80.316672,1319,EasyGO1319,Conestoga Transit Garage,0
43.392683,,-80.315282,1318,EasyGO1318,Conestoga / Lena,0
43.439785,,-80.531192,3123,EasyGO3123,Ingleside / Ingleside Place,0
43.47479787,,-80.57253968,3949,EasyGO3949,Laurelwood / Bearinger,0
43.41401146,,-80.37997156,3940,EasyGO3940,Cherry Blossom / Saltsman,0
43.4086877,,-80.37319514,3941,EasyGO3941,Fountain / A.T.S.,0
43.40383777,,-80.37029467,3942,EasyGO3942,Fountain / Marmel,0
43.4721483,,-80.53571033,3943,EasyGO3943,University / Phillip,0
43.45283952,,-80.498498,3944,EasyGO3944,Victoria,0
43.47315584,,-80.53291488,3945,EasyGO3945,University / Sunview,0
43.44868142,,-80.55003257,1992,EasyGO1992,Fischer-Hallman / Thorndale,0
43.441147,,-80.498968,2756,EasyGO2756,Highland / Queen,0
43.441318,,-80.502043,2757,EasyGO2757,Highland / West,0
43.445883,,-80.493352,2754,EasyGO2754,Queen / Courtland,0
43.442465,,-80.496753,2755,EasyGO2755,Queen / Homewood,0
43.450037,,-80.572765,1981,EasyGO1981,Erbsville / Chablis,0
43.44412,,-80.489182,2752,EasyGO2752,Courtland / Peter,0
43.44524,,-80.491145,2753,EasyGO2753,Courtland / Benton,0
43.441398,,-80.484513,2750,EasyGO2750,Courtland / Stirling,0
43.484315,,-80.486892,2023,EasyGO2023,Bridge / Bridgeport P.S.,0
43.45524,,-80.545303,1997,EasyGO1997,Erb / Amos,0
43.459177,,-80.480408,2324,EasyGO2324,Victoria / Chestnut,0
43.450743,,-80.51638,2692,EasyGO2692,545 Belmont Ave.,0
43.35311694,,-80.29765853,2299,EasyGO2299,South / Chalmers,0
43.356437,,-80.296402,2298,EasyGO2298,Elgin / Main,0
43.421602,,-80.440085,3614,EasyGO3614,Fairway / Fairview Park Mall,0
43.446473,,-80.523251,3615,EasyGO3615,Westwood / Westmount,0
43.441378,,-80.47277,3616,EasyGO3616,Ottawa,0
43.441487,,-80.4727,3617,EasyGO3617,Ottawa,0
43.348497,,-80.289428,2293,EasyGO2293,Champlain / Bakersfield,0
43.34672,,-80.288238,2292,EasyGO2292,Franklin / Copperfield,0
43.34378,,-80.287082,2291,EasyGO2291,Franklin / Myers,0
43.342993,,-80.288967,2290,EasyGO2290,Myers / Franklin,0
43.354412,,-80.295585,2297,EasyGO2297,Elgin / Elliott,0
43.45993933,,-80.50288706,2296,EasyGO2296,Waterloo / Guelph,0
43.351428,,-80.294362,2295,EasyGO2295,Elgin / Woolley,0
43.348058,,-80.291935,2294,EasyGO2294,Champlain / Elgin,0
43.441945,,-80.471873,2569,EasyGO2569,King / Ottawa,0
43.442843,,-80.47391,2568,EasyGO2568,King / Borden,0
43.44922,,-80.487815,2561,EasyGO2561,King / Benton,0
43.44898,,-80.492063,2560,EasyGO2560,Charles St. Terminal,0
43.449871,,-80.489391,2562,EasyGO2562,King / Queen,0
43.446092,,-80.480918,2565,EasyGO2565,King / Cameron,0
43.447428,,-80.483587,2564,EasyGO2564,King / Cedar,0
43.444307,,-80.477213,2567,EasyGO2567,King / Stirling,0
43.455598,,-80.463872,2369,EasyGO2369,Krug / Cambridge,0
43.453692,,-80.46219,2368,EasyGO2368,Smithson / Belleview,0
43.452555,,-80.46481,2367,EasyGO2367,Becker / Belleview,0
43.45438199,,-80.46747834,2366,EasyGO2366,Krug / Becker,0
43.453898,,-80.468453,2365,EasyGO2365,Krug / Dumfries,0
43.453255,,-80.470418,2364,EasyGO2364,Krug / Melrose,0
43.452652,,-80.472286,2363,EasyGO2363,Krug / East,0
43.451868,,-80.474492,2362,EasyGO2362,Krug / Lydia,0
43.450968,,-80.47711,2361,EasyGO2361,Krug / Samuel,0
43.450328,,-80.478952,2360,EasyGO2360,Krug / Rose,0
43.42873,,-80.446709,2587,EasyGO2587,Connaught / Woodhaven,0
43.427895,,-80.444783,2586,EasyGO2586,Traynor / Connaught,0
43.425622,,-80.445195,2585,EasyGO2585,Greenfield / Traynor,0
43.424723,,-80.441527,2584,EasyGO2584,Greenfield / Kingsway,0
43.424524,,-80.441429,2583,EasyGO2583,Greenfield / Kingsway,0
43.425585,,-80.445473,2582,EasyGO2582,Greenfield / Traynor,0
43.427825,,-80.444893,2581,EasyGO2581,Traynor / Connaught,0
43.428527,,-80.44637,2580,EasyGO2580,Connaught / Woodhaven,0
43.374147,,-80.31965,1612,EasyGO1612,Coronation / Grandview,0
43.430047,,-80.45084,2589,EasyGO2589,Connaught / Franklin,0
43.41229,,-80.452637,1861,EasyGO1861,Bleams / Otonabee,0
43.412632,,-80.450107,1860,EasyGO1860,Bleams / Manitou,0
43.408783,,-80.466692,1863,EasyGO1863,Bleams / Century Hill,0
43.410487,,-80.459917,1862,EasyGO1862,Bleams / Homer Watson,0
43.411057,,-80.476065,1865,EasyGO1865,Strasburg / Old Country,0
43.5434,,-80.5479,3729,EasyGO3729,Sawmill / Arthur,0
43.435477,,-80.433197,1867,EasyGO1867,Kinzie / Thaler,0
43.434148,,-80.431113,1866,EasyGO1866,Thaler / Fairway,0
43.3996,,-80.4842,3724,EasyGO3724,825 Trillium Dr.,0
43.4426,,-80.4159,3725,EasyGO3725,Fairway / Lackner,0
43.4433,,-80.4151,3726,EasyGO3726,Lackner / Fairway,0
43.5103,,-80.543,3727,EasyGO3727,King / Martin Grove,0
43.4562,,-80.5145,3720,EasyGO3720,Park / Mt. Hope,0
43.4001,,-80.4847,3723,EasyGO3723,860 Trillium Dr.,0
43.376767,,-80.305702,2109,EasyGO2109,Elgin / Winter,0
43.37845,,-80.306377,2108,EasyGO2108,Elgin / Avenue,0
43.376517,,-80.316632,2103,EasyGO2103,Elmwood / Brooklyne,0
43.374737,,-80.313247,2102,EasyGO2102,Elmwood / Jarvis,0
43.373232,,-80.310385,2101,EasyGO2101,Elmwood / Brock,0
43.371253,,-80.306917,2100,EasyGO2100,Moscrip / Bronson,0
43.41396853,,-80.47756831,2105,EasyGO2105,Strasburg / Forest Glen Plaza,0
43.37835,,-80.31090776,2104,EasyGO2104,Avenue / Gail,0
43.451068,,-80.471668,2639,EasyGO2639,East / Cameron,0
43.449063,,-80.470335,2638,EasyGO2638,East / Stirling,0
43.444333,,-80.467003,2635,EasyGO2635,Ottawa / Weber,0
43.44495,,-80.465235,2634,EasyGO2634,Ottawa / Mckenzie,0
43.446452,,-80.469085,2637,EasyGO2637,The Aud,0
43.445605,,-80.470695,2636,EasyGO2636,Weber / Borden,0
43.447863,,-80.450372,2631,EasyGO2631,Franklin / Ottawa,0
43.446487,,-80.44947,2630,EasyGO2630,Franklin / Dreger,0
43.447692,,-80.458715,2633,EasyGO2633,Ottawa / Nottingham,0
43.448212,,-80.45296,2632,EasyGO2632,Ottawa / Dreger,0
43.440101,,-80.295513,1241,EasyGO1241,Melran / Alderson,0
43.373417,,-80.286378,1536,EasyGO1536,Clyde / Dobbie,0
43.392573,,-80.339807,3430,EasyGO3430,Mary / Bishop,0
43.498383,,-80.552443,3432,EasyGO3432,Golden Eagle / Northlake,0
43.499223,,-80.554127,3433,EasyGO3433,Northlake / Mayview,0
43.475557,,-80.50052,3434,EasyGO3434,Bluevale C.I. 3,0
43.475617,,-80.500323,3435,EasyGO3435,Bluevale C.I. 2,0
43.475664,,-80.5002,3436,EasyGO3436,Bluevale C.I. 1,0
43.424838,,-80.459972,2741,EasyGO2741,Vanier / Shelley,0
43.423453,,-80.458512,2740,EasyGO2740,Vanier / Vanier Pk.,0
43.428358,,-80.464518,2743,EasyGO2743,Walton / Vanier,0
43.427403,,-80.462762,2742,EasyGO2742,Vanier / Erie,0
43.432857,,-80.471753,2745,EasyGO2745,Courtland / Carwood,0
43.42783,,-80.466003,2744,EasyGO2744,Walton / Kipling,0
43.437218,,-80.477357,2747,EasyGO2747,Courtland / Ottawa,0
43.435762,,-80.475038,2746,EasyGO2746,Courtland / Sydney,0
43.440023,,-80.482263,2749,EasyGO2749,Courtland / Palmer,0
43.43833552,,-80.47927682,2748,EasyGO2748,Courtland / Borden,0
43.505638,,-80.503407,2039,EasyGO2039,Eastbridge / Windjammer,0
43.508662,,-80.500663,2038,EasyGO2038,Path To St. Luke,0
43.365943,,-80.288943,1531,EasyGO1531,55 Savage Dr.,0
43.364967,,-80.291768,1530,EasyGO1530,Franklin / Savage,0
43.427858,,-80.297755,1247,EasyGO1247,Cooper / Ellis,0
43.462708,,-80.510397,3236,EasyGO3236,Moore / Union,0
43.46303,,-80.511908,3237,EasyGO3237,Union / Lucan,0
43.40380014,,-80.33208362,3544,EasyGO3544,777 Industrial Rd.,0
43.407048,,-80.333163,3545,EasyGO3545,Industrial / Eagle,0
43.408218,,-80.295728,3546,EasyGO3546,Sheldon / Thompson,0
43.404702,,-80.310327,3547,EasyGO3547,180 Sheldon Dr.,0
43.43098304,,-80.31126755,3540,EasyGO3540,Queen / Adam,0
43.440022,,-80.313213,3541,EasyGO3541,Guelph / Milton,0
43.432588,,-80.29392,3542,EasyGO3542,Kerwood / Housler,0
43.410883,,-80.311593,3543,EasyGO3543,Pinebush / Wayne,0
43.461723,,-80.509325,3235,EasyGO3235,Moore / Roger,0
43.461153,,-80.5329,1964,EasyGO1964,Erb / Beverley,0
43.46018,,-80.535143,1965,EasyGO1965,Erb / Dietz,0
43.460439,,-80.514335,3238,EasyGO3238,Union / Herbert,0
43.410617,,-80.513898,2965,EasyGO2965,Wilderness / Pine Martin,0
43.41264,,-80.51693,2964,EasyGO2964,Ottawa / Wilderness,0
43.411203,,-80.509642,2967,EasyGO2967,Activa / Bush Clover,0
43.379688,,-80.3289,1615,EasyGO1615,Cambridge Memorial Hospital,0
43.406932,,-80.51882,2961,EasyGO2961,David Bergey / Peach Blossom,0
43.405712,,-80.51839,2960,EasyGO2960,David Bergey / Peach Blossom,0
43.411662,,-80.519825,2963,EasyGO2963,Path To Watercress,0
43.410383,,-80.521995,2962,EasyGO2962,David Bergey / Ottawa,0
43.403457,,-80.485038,1780,EasyGO1780,Mcintyre / Trillium,0
43.401057,,-80.485467,1781,EasyGO1781,Trillium / Washburn,0
43.398945,,-80.482102,1782,EasyGO1782,Trillium / Natural Area,0
43.39894,,-80.477368,1783,EasyGO1783,680 Trillium Dr.,0
43.41657,,-80.51087,2969,EasyGO2969,Fischer-Hallman / Ottawa,0
43.413305,,-80.50862803,2968,EasyGO2968,Activa / Grey Fox,0
43.401607,,-80.466172,1786,EasyGO1786,Trillium / Shoemaker,0
43.375533,,-80.321978,1613,EasyGO1613,Coronation / Goldie,0
43.423242,,-80.481777,3049,EasyGO3049,Kingswood / Flint,0
43.421997,,-80.478115,3048,EasyGO3048,Kingswood / Alpine,0
43.463217,,-80.528128,1962,EasyGO1962,Erb / Wells,0
43.414235,,-80.468332,3041,EasyGO3041,Country Hill / Four Seasons,0
43.410957,,-80.466785,3040,EasyGO3040,Country Hill / Martinglen,0
43.415473,,-80.474433,3043,EasyGO3043,Country Hill / Cedarhill,0
43.414275,,-80.470423,3042,EasyGO3042,Country Hill / Coach Hill,0
43.418392,,-80.473393,3045,EasyGO3045,Kingswood / Block Line,0
43.41702,,-80.475477,3044,EasyGO3044,Country Hill / Block Line,0
43.421325,,-80.475512,3047,EasyGO3047,Kingswood / Gracefield,0
43.41922,,-80.47467,3046,EasyGO3046,Kingswood / Selkirk,0
43.460542,,-80.466342,1078,EasyGO1078,Frederick / Ethel,0
43.460068,,-80.467853,1079,EasyGO1079,Frederick / Bruce,0
43.461923,,-80.461955,1076,EasyGO1076,Frederick / River,0
43.373213,,-80.285338,1535,EasyGO1535,Dobbie / Clyde,0
43.458802,,-80.45486,1074,EasyGO1074,River / Manchester,0
43.45949,,-80.459002,1075,EasyGO1075,River / Islington,0
43.453358,,-80.445827,1072,EasyGO1072,River / Path To Secord,0
43.457685,,-80.45041,1073,EasyGO1073,River / Halliwell,0
43.449525,,-80.443333,1070,EasyGO1070,River / Stanley Park Mall,0
43.451408,,-80.444552,1071,EasyGO1071,River / Ottawa,0
43.470897,,-80.44066,1678,EasyGO1678,Lackner / Victoria,0
43.470813,,-80.44442,1679,EasyGO1679,Victoria / Smetana,0
43.463098,,-80.430055,1674,EasyGO1674,Keewatin / Stanmore,0
43.463783,,-80.432567,1675,EasyGO1675,Keewatin / Dunnigan,0
43.465118,,-80.436453,1676,EasyGO1676,Keewatin / Lackner,0
43.468475,,-80.438675,1677,EasyGO1677,Path To Georgian,0
43.452812,,-80.438582,1670,EasyGO1670,Ottawa / Montcalm,0
43.453983,,-80.435153,1671,EasyGO1671,Ottawa / Mcgee,0
43.457883,,-80.4312,1672,EasyGO1672,Ottawa / Lackner,0
43.461025,,-80.4278,1673,EasyGO1673,Keewatin / Ottawa,0
43.475522,,-80.544382,1094,EasyGO1094,Columbia / U.W. Optometry,0
43.47316,,-80.550983,1096,EasyGO1096,Columbia / Village 1,0
43.471577,,-80.55539,1097,EasyGO1097,Columbia / Ron Eydt Village,0
43.469288,,-80.538617,1090,EasyGO1090,University / Seagram,0
43.476818,,-80.5408,1093,EasyGO1093,Columbia / Phillip,0
43.470135,,-80.559598,1098,EasyGO1098,Columbia / Old Post,0
43.46958789,,-80.56111218,1099,EasyGO1099,Columbia / Beechlawn,0
43.42635,,-80.543892,3135,EasyGO3135,Bankside / Westforest,0
43.391738,,-80.35012,1623,EasyGO1623,King / Montrose,0
43.42789,,-80.53791,3137,EasyGO3137,Bankside / Bankside Pk.,0
43.426697,,-80.540788,3136,EasyGO3136,Path To Highland,0
43.43436,,-80.535575,3131,EasyGO3131,Path To Wexford,0
43.435092,,-80.533263,3130,EasyGO3130,Victoria / Stoke,0
43.430573,,-80.543997,3133,EasyGO3133,Westforest / Hidden Creek,0
43.433322,,-80.539823,3132,EasyGO3132,Victoria / Westforest,0
43.4308,,-80.5337,3139,EasyGO3139,Bankside / Eastforest,0
43.42893,,-80.535682,3138,EasyGO3138,Bankside / Bankside Cres.,0
43.367997,,-80.283285,1533,EasyGO1533,Dobbie / Savage,0
43.402607,,-80.346813,1418,EasyGO1418,Concession / Garden,0
43.400042,,-80.346013,1419,EasyGO1419,Concession / Dolph,0
43.391403,,-80.36447,1410,EasyGO1410,Rose / Argyle,0
43.393058,,-80.363097,1411,EasyGO1411,Argyle / Vine,0
43.394632,,-80.36156,1412,EasyGO1412,Argyle / Hamilton,0
43.394138,,-80.36024,1413,EasyGO1413,Hamilton / Westminster,0
43.395654,,-80.358511,1414,EasyGO1414,Westminster / King,0
43.396587,,-80.357615,1415,EasyGO1415,Westminster / Duke,0
43.3986,,-80.35565,1416,EasyGO1416,Westminster / Lawrence,0
43.404625,,-80.347618,1417,EasyGO1417,Eagle / Speedsville,0
43.394793,,-80.329235,1322,EasyGO1322,Industrial / Bishop,0
43.396502,,-80.329762,1323,EasyGO1323,1367 Industrial Rd.,0
43.395937,,-80.320837,1320,EasyGO1320,Bishop / Collier-Macmillan,0
43.39499,,-80.325757,1321,EasyGO1321,Bishop / Hespeler,0
43.409082,,-80.321437,1326,EasyGO1326,Pinebush / Smartcentre,0
43.409917,,-80.3169,1327,EasyGO1327,Pinebush / High Ridge,0
43.402378,,-80.33158,1324,EasyGO1324,Industrial / Langs,0
43.407613,,-80.329882,1325,EasyGO1325,Eagle / Hespeler,0
43.412682,,-80.30126,1329,EasyGO1329,Pinebush / Balmoral,0
43.424602,,-80.316617,1256,EasyGO1256,Winston / Edward,0
43.42183,,-80.310213,1257,EasyGO1257,Franklin / Winston,0
43.423247,,-80.32423,1254,EasyGO1254,Queen / Shepherd,0
43.426565,,-80.318583,1255,EasyGO1255,Winston / Queen,0
43.427548,,-80.318845,1252,EasyGO1252,Queen / Winston,0
43.422573,,-80.325145,1253,EasyGO1253,Queen / Shepherd,0
43.431183,,-80.311242,1250,EasyGO1250,Queen / Adam,0
43.429298,,-80.31529,1251,EasyGO1251,Queen / Harvey,0
43.357723,,-80.28973,1528,EasyGO1528,South Cambridge Shopping Ctr,0
43.363012,,-80.291022,1529,EasyGO1529,Franklin / Moorefield,0
43.424345,,-80.31005,1258,EasyGO1258,Franklin / Thomas,0
43.427027,,-80.309848,1259,EasyGO1259,Franklin / Edward,0
43.38730012,,-80.42355542,3959,EasyGO3959,Doon South / Windrush,0
43.3846252,,-80.425973,3958,EasyGO3958,Doon South / Winding Wood,0
43.38284978,,-80.42851264,3953,EasyGO3953,Doon Mills / Woodsmere,0
43.44956518,,-80.49253613,3951,EasyGO3951,Charles St. Terminal,0
43.45570086,,-80.49198468,3950,EasyGO3950,Kitchener Train Station,0
43.38302172,,-80.42697956,3957,EasyGO3957,Doon South / Forest Edge,0
43.38594918,,-80.43144384,3956,EasyGO3956,Doon Mills / Pine Valley,0
43.38720124,,-80.43541799,3955,EasyGO3955,Doon Mills / Apple Ridge,0
43.39077064,,-80.4385429,3954,EasyGO3954,Doon Village / Anvil,0
43.397458,,-80.361245,1626,EasyGO1626,King / Waterloo,0
43.431417,,-80.4847,3056,EasyGO3056,Hoffman / Kehl,0
43.464875,,-80.490067,2474,EasyGO2474,St. Leger / Guelph,0
43.430559,,-80.487082,3057,EasyGO3057,Hoffman / Highland,0
43.424297,,-80.525387,3341,EasyGO3341,Elm Ridge / Hickory Heights,0
43.426775,,-80.54091,3204,EasyGO3204,Path To Hidden Creek,0
43.43208,,-80.482665,3055,EasyGO3055,Hoffman / Meinzinger,0
43.459055,,-80.537748,1966,EasyGO1966,Erb / Westmount,0
43.424981,,-80.483083,3052,EasyGO3052,Alpine / Ottawa,0
43.462472,,-80.580773,1105,EasyGO1105,Columbia / Erbsville,0
43.42532,,-80.483267,3053,EasyGO3053,Alpine / Ottawa,0
43.422477,,-80.48309,3050,EasyGO3050,Kingswood / Roberts,0
43.421268,,-80.485437,3051,EasyGO3051,Kingswood / Strasburg,0
43.411071,,-80.456915,3607,EasyGO3607,Bleams / Fallowfield,0
43.468624,,-80.511143,3606,EasyGO3606,Weber / Erb,0
43.504295,,-80.544678,3605,EasyGO3605,Kumpf / Randall,0
43.510687,,-80.522143,3604,EasyGO3604,Northfield / Bridge,0
43.382533,,-80.33431,3609,EasyGO3609,Coronation / Highland,0
43.411013,,-80.457794,3608,EasyGO3608,Bleams / Fallowfield,0
43.441147,,-80.509502,2698,EasyGO2698,Belmont / Metzloff,0
43.453387,,-80.486337,2358,EasyGO2358,Queen / Ahrens,0
43.450443,,-80.484336,2359,EasyGO2359,Weber / Scott,0
43.460592,,-80.476582,2352,EasyGO2352,Victoria / Indiana,0
43.459712,,-80.479342,2353,EasyGO2353,Victoria / Locust,0
43.463698,,-80.459627,2350,EasyGO2350,Frederick / Turner,0
43.46009,,-80.474638,2351,EasyGO2351,Edna / Hwy 7 Ramp,0
43.456588,,-80.483803,2356,EasyGO2356,Queen / St. Leger,0
43.454551,,-80.485262,2357,EasyGO2357,Queen / Margaret,0
43.45914,,-80.480998,2354,EasyGO2354,Victoria / Chestnut,0
43.45774,,-80.482782,2355,EasyGO2355,Queen / Lancaster,0
43.455978,,-80.507828,1898,EasyGO1898,King / Central Fresh Market,0
43.3835,,-80.4834,3739,EasyGO3739,Woodbine / Huron,0
43.3867,,-80.4846,3738,EasyGO3738,Woodbine / Sophia,0
43.3889,,-80.4857,3737,EasyGO3737,Parkvale / Woodbine,0
43.3896,,-80.482,3736,EasyGO3736,Parkvale / Huron Pk.,0
43.3893,,-80.4788,3735,EasyGO3735,Parkvale / Woodbine,0
43.39,,-80.4745,3734,EasyGO3734,Parkvale / Huron Natural Pk.,0
43.3893,,-80.4721,3733,EasyGO3733,Parkvale / Huron,0
43.451509,,-80.493726,1891,EasyGO1891,King / College,0
43.4348,,-80.4281,3731,EasyGO3731,Fairway / River,0
43.4482,,-80.4855,3730,EasyGO3730,King / Scott,0
43.350632,,-80.333678,2136,EasyGO2136,Woodside / Cedar,0
43.35215,,-80.334337,2137,EasyGO2137,Southgate / Day,0
43.349505,,-80.329312,2134,EasyGO2134,Woodside / Victoria,0
43.35025,,-80.331962,2135,EasyGO2135,142 Woodside Ave.,0
43.346495,,-80.328495,2132,EasyGO2132,Stanley / St. Andrews,0
43.348208,,-80.328343,2133,EasyGO2133,St. Gregorys / Caledon,0
43.347443,,-80.322063,2130,EasyGO2130,Stanley / Glenmorris,0
43.468148,,-80.448738,1680,EasyGO1680,Natchez / Rothsay,0
43.353335,,-80.333777,2138,EasyGO2138,Churchill / Dale,0
43.354035,,-80.33225,2139,EasyGO2139,Hillcrest / Churchill,0
43.446008,,-80.470857,2648,EasyGO2648,Borden / Weber,0
43.46533398,,-80.57294754,1102,EasyGO1102,Columbia / Gatestone,0
43.452503,,-80.472598,2640,EasyGO2640,East / Krug,0
43.454412,,-80.473902,2641,EasyGO2641,East / Chapel,0
43.456388,,-80.47556,2642,EasyGO2642,East / Frederick,0
43.45451,,-80.474103,2643,EasyGO2643,East / Chapel,0
43.452722,,-80.472907,2644,EasyGO2644,East / Krug,0
43.450497,,-80.471438,2645,EasyGO2645,East / Cameron,0
43.44844,,-80.470073,2646,EasyGO2646,East / Stirling,0
43.446523,,-80.46911,2647,EasyGO2647,The Aud,0
43.390948,,-80.359021,1441,EasyGO1441,Lowther / Vine,0
43.46836,,-80.438798,2340,EasyGO2340,Path To Georgian,0
43.3961,,-80.340542,3429,EasyGO3429,Valentine / Mary,0
43.396695,,-80.337607,3428,EasyGO3428,Valentine / Michael,0
43.402963,,-80.337327,3423,EasyGO3423,Trico / Newport,0
43.401227,,-80.336738,3422,EasyGO3422,Trico / Chateau,0
43.398878,,-80.340598,3427,EasyGO3427,Walter / Langs,0
43.401835,,-80.343625,3426,EasyGO3426,Mortimer / Hyannis,0
43.404447,,-80.3407,3425,EasyGO3425,Trico / Providence,0
43.404617,,-80.338565,3424,EasyGO3424,Trico / New Haven,0
43.462487,,-80.529438,2002,EasyGO2002,Erb / Avondale,0
43.463198,,-80.527782,2003,EasyGO2003,Erb / Euclid,0
43.460688,,-80.533593,2000,EasyGO2000,Erb / Dietz,0
43.461487,,-80.531728,2001,EasyGO2001,Erb / Roslin,0
43.465277,,-80.521843,2006,EasyGO2006,Erb / King,0
43.46573,,-80.51812,2007,EasyGO2007,Erb / Willow,0
43.464143,,-80.525622,2004,EasyGO2004,Erb / Caroline,0
43.463347,,-80.524432,2005,EasyGO2005,Caroline /Father David Bauer,0
43.466657,,-80.515267,2008,EasyGO2008,Erb / Moore,0
43.467675,,-80.513498,2009,EasyGO2009,Erb / Devitt,0
43.419188,,-80.474798,3026,EasyGO3026,Kingswood / Selkirk,0
43.394083,,-80.466445,3558,EasyGO3558,Huron Heights S.S.,0
43.431487,,-80.479552,2910,EasyGO2910,Ottawa / Hoffman,0
43.434327,,-80.47906,2911,EasyGO2911,Mill / Ottawa,0
43.43522,,-80.483047,2912,EasyGO2912,Mill / Borden,0
43.435838,,-80.485643,2913,EasyGO2913,Mill / Heiman,0
43.437068,,-80.486985,2914,EasyGO2914,Mill / Stirling,0
43.440988,,-80.48437,2915,EasyGO2915,Stirling / Courtland,0
43.443348,,-80.479087,2916,EasyGO2916,Stirling / Charles,0
43.443563,,-80.478881,2917,EasyGO2917,Stirling / Charles,0
43.402553,,-80.462397,1793,EasyGO1793,Trillium / Adam Ferrie,0
43.444802,,-80.480365,2919,EasyGO2919,Charles / Cameron,0
43.399208,,-80.458852,1791,EasyGO1791,Trillium / Groff,0
43.398735,,-80.460748,1790,EasyGO1790,End Of Groff Place,0
43.399333,,-80.476195,1797,EasyGO1797,640 Trillium Dr.,0
43.400003,,-80.473257,1796,EasyGO1796,Trillium / Mcbrine,0
43.401035,,-80.468637,1795,EasyGO1795,Trillium / Strasburg,0
43.401727,,-80.466235,1794,EasyGO1794,Trillium / Shoemaker,0
43.422147,,-80.478615,3024,EasyGO3024,Kingswood / Alpine,0
43.354693,,-80.30764,1524,EasyGO1524,Concession / Cameron,0
43.44719,,-80.442152,1069,EasyGO1069,River / Conway,0
43.445873,,-80.441332,1068,EasyGO1068,River / Bradley,0
43.448875,,-80.426877,1061,EasyGO1061,Oldfield / Springmount,0
43.45078,,-80.429868,1060,EasyGO1060,Oldfield / Drumoak,0
43.448948,,-80.429197,1063,EasyGO1063,Edenbridge / Charleston,0
43.449802,,-80.424072,1062,EasyGO1062,Oldfield / Lackner,0
43.448088,,-80.435902,1065,EasyGO1065,Edenbridge / Old Chicopee,0
43.448697,,-80.433367,1064,EasyGO1064,Edenbridge / Darlington,0
43.444765,,-80.440157,1067,EasyGO1067,Kenora / River,0
43.445795,,-80.43827,1066,EasyGO1066,Kenora / Wayne,0
43.422832,,-80.480267,3023,EasyGO3023,Kingswood / Appalachian,0
43.450973,,-80.443898,1669,EasyGO1669,Ottawa / River,0
43.448932,,-80.44384,1668,EasyGO1668,Stanley Park Mall Terminal,0
43.448908,,-80.444078,1667,EasyGO1667,Stanley Park Mall Terminal,0
43.444358,,-80.440063,1666,EasyGO1666,River / Kenora,0
43.44311,,-80.43899,1665,EasyGO1665,River / Rennie,0
43.439122,,-80.43306,1664,EasyGO1664,River / Old Chicopee,0
43.436887,,-80.430715,1663,EasyGO1663,River / Kinzie,0
43.434922,,-80.428513,1662,EasyGO1662,River / Fairway,0
43.422813,,-80.443038,1661,EasyGO1661,Kingsway / Wilson,0
43.429699,,-80.430819,1660,EasyGO1660,Morgan / Fairway,0
43.451742,,-80.485697,1087,EasyGO1087,Frederick / Weber,0
43.4524,,-80.484435,1086,EasyGO1086,Frederick / Irvin,0
43.453507,,-80.482377,1085,EasyGO1085,Frederick / Lancaster,0
43.45479,,-80.479888,1084,EasyGO1084,Frederick / Gordon,0
43.446563,,-80.523716,1083,EasyGO1083,Westwood / Westmount,0
43.456532,,-80.476608,1082,EasyGO1082,Frederick / Filbert,0
43.459367,,-80.470082,1081,EasyGO1081,Frederick / Ann,0
43.458515,,-80.472747,1080,EasyGO1080,Frederick / Edna,0
43.448535,,-80.488312,1089,EasyGO1089,Benton / Charles,0
43.449915,,-80.487397,1088,EasyGO1088,Frederick / King,0
43.430279,,-80.525202,3140,EasyGO3140,Highland Hills Mall Terminal,0
43.432738,,-80.526075,3141,EasyGO3141,Fischer-Hallman / Highland,0
43.43654237,,-80.52854122,3142,EasyGO3142,Victoria / Fischer-Hallman,0
43.436848,,-80.529197,3143,EasyGO3143,Fischer-Hallman / Victoria,0
43.439465,,-80.535423,3144,EasyGO3144,Fischer-Hallman / Stoke,0
43.47334861,,-80.44233529,3145,EasyGO3145,Bingemans Ctr. / Shirley,0
43.444408,,-80.545685,3146,EasyGO3146,Fischer-Hallman / University,0
43.355722,,-80.301545,1526,EasyGO1526,Concession / Scrimger,0
43.4768494,,-80.43377217,3148,EasyGO3148,Shirley / Cedarview,0
43.457873,,-80.55446,3149,EasyGO3149,Keats Way / Midwood,0
43.48259,,-80.506755,2826,EasyGO2826,Lincoln / Bluevale,0
43.47975,,-80.507518,2827,EasyGO2827,Lincoln / Mayfield,0
43.493248,,-80.504447,2821,EasyGO2821,Lee / Dunvegan,0
43.412407,,-80.549352,3386,EasyGO3386,Golden Meadow / Yellow Birch,0
43.411312,,-80.545255,3387,EasyGO3387,Yellow Birch / Stonehenge,0
43.41569,,-80.547488,3384,EasyGO3384,Highview / Sugar Maple,0
43.415528,,-80.549697,3385,EasyGO3385,Highview / Old Maple,0
43.427452,,-80.530157,3382,EasyGO3382,Westheights / Blackwell,0
43.426723,,-80.528675,3383,EasyGO3383,Queens / Elm Ridge,0
43.42621,,-80.540313,3380,EasyGO3380,Path To Bankside,0
43.428992,,-80.531257,3381,EasyGO3381,Westheights / Highland,0
43.413202,,-80.539692,3388,EasyGO3388,Yellow Birch / Driftwood,0
43.436292,,-80.513232,3389,EasyGO3389,Highland / Westmount,0
43.390753,,-80.363195,1409,EasyGO1409,Rose / Westminster,0
43.389303,,-80.36037,1408,EasyGO1408,Rose / Lowther,0
43.38958,,-80.35101,1403,EasyGO1403,Hamilton / Montrose,0
43.388447,,-80.348428,1402,EasyGO1402,Bishop / Hamilton,0
43.390753,,-80.346333,1401,EasyGO1401,Bishop / Duke,0
43.389513,,-80.342392,1400,EasyGO1400,Concession / Grand Valley,0
43.388482,,-80.357727,1407,EasyGO1407,Homuth / Frederick,0
43.38878,,-80.355175,1406,EasyGO1406,Homuth / Bernhardt,0
43.390108,,-80.354282,1405,EasyGO1405,Beck / Hamilton,0
43.39061,,-80.353122,1404,EasyGO1404,Hamilton / Union,0
43.402043,,-80.319252,1339,EasyGO1339,Conestoga / Sheldon,0
43.403142,,-80.315672,1338,EasyGO1338,Sheldon / Corydon,0
43.40729132,,-80.30113485,1335,EasyGO1335,Sheldon / Balmoral,0
43.49796306,,-80.50323824,1334,EasyGO1334,Bridge / Lexington,0
43.40321,,-80.312398,1337,EasyGO1337,Sheldon / Wolseley,0
43.406197,,-80.307652,1336,EasyGO1336,Sheldon / Franklin,0
43.41370532,,-80.29487167,1331,EasyGO1331,Pinebush / Fleming,0
43.41311,,-80.298437,1330,EasyGO1330,355 Pinebush Rd.,0
43.408788,,-80.293065,1333,EasyGO1333,Fleming / Sheldon,0
43.4100035,,-80.29346365,1332,EasyGO1332,Fleming / Thompson,0
43.43096,,-80.52795,3201,EasyGO3201,Highland / Highland Hills Mall,0
43.44344,,-80.545728,3260,EasyGO3260,University / Fischer-Hallman,0
43.466992,,-80.568283,1100,EasyGO1100,Columbia / Fischer-Hallman,0
43.372567,,-80.29067,1537,EasyGO1537,Clyde / Bluerock,0
43.420897,,-80.515425,3093,EasyGO3093,Greenbrook / Fischer-Hallman,0
43.424997,,-80.511713,3090,EasyGO3090,Stonybrook / Greenbrook,0
43.424019,,-80.512662,3091,EasyGO3091,Greenbrook / Birchcliff,0
43.42608,,-80.511095,3096,EasyGO3096,Forest Hill Shopping Ctr.,0
43.428213,,-80.507058,3097,EasyGO3097,Greenbrook / Westmount,0
43.421042,,-80.515015,3094,EasyGO3094,Greenbrook / Ruskview,0
43.424055,,-80.512514,3095,EasyGO3095,Greenbrook / Birchcliff,0
43.431798,,-80.305808,1249,EasyGO1249,Cooper / Lewis,0
43.4305,,-80.301247,1248,EasyGO1248,Cooper / Ontario,0
43.428535,,-80.502678,3098,EasyGO3098,Greenbrook / Village,0
43.428897,,-80.499108,3099,EasyGO3099,Greenbrook / Lakeside,0
43.375732,,-80.297143,1539,EasyGO1539,Franklin / Athlone,0
43.371447,,-80.294337,1538,EasyGO1538,Clyde / Franklin,0
43.4417,,-80.538622,3267,EasyGO3267,Westwood / Dayman,0
43.397282,,-80.377938,1633,EasyGO1633,Preston / Parkview,0
43.440663,,-80.527048,3125,EasyGO3125,Victoria Hills Plaza,0
43.355458,,-80.314012,1523,EasyGO1523,Ainslie / Walnut,0
43.475004,,-80.545979,3898,EasyGO3898,Columbia / U.W.,0
43.474463,,-80.546597,3899,EasyGO3899,Columbia / U.W.,0
43.399225,,-80.37618,1634,EasyGO1634,Preston / Linden,0
43.43130729,,-80.52544562,3892,EasyGO3892,Fischer-Hallman / Highland,0
43.41354628,,-80.50791947,3893,EasyGO3893,Fischer-Hallman / Activa,0
43.46736757,,-80.5656453,3890,EasyGO3890,Fischer-Hallman / Columbia,0
43.43158487,,-80.52537118,3891,EasyGO3891,Fischer-Hallman / Highland,0
43.40749039,,-80.50154019,3896,EasyGO3896,Fischer-Hallman / Westmount,0
43.41372455,,-80.50847305,3894,EasyGO3894,Fischer-Hallman / Activa,0
43.360054,,-80.313507,1468,EasyGO1468,Ainslie / Dickson,0
43.472233,,-80.579393,1111,EasyGO1111,Laurelwood / Beaver Crk. Rd.,0
43.510357,,-80.53335,2063,EasyGO2063,Bathurst / Rankin,0
43.38720924,,-80.42329307,3966,EasyGO3966,Doon South / Windrush,0
43.40921608,,-80.32212383,3967,EasyGO3967,Pinebush / Conestoga,0
43.38267139,,-80.4270871,3964,EasyGO3964,Doon South / Forest Edge,0
43.38471895,,-80.4257893,3965,EasyGO3965,Doon South / Winding Wood,0
43.38707129,,-80.43526554,3962,EasyGO3962,Doon Mills / Apple Ridge,0
43.38607613,,-80.43183295,3963,EasyGO3963,Doon Mills / Pine Valley,0
43.39045962,,-80.40360668,3960,EasyGO3960,Conestoga College Door 3,0
43.39069881,,-80.43866257,3961,EasyGO3961,Doon Village / Anvil,0
43.432635,,-80.523322,3200,EasyGO3200,Highland / Highland Cres.,0
43.41040054,,-80.31548358,3968,EasyGO3968,Pinebush / Struck,0
43.41105189,,-80.31169579,3969,EasyGO3969,Pinebush / Wayne,0
43.44634,,-80.44953,2854,EasyGO2854,Franklin / Penrose,0
43.465907,,-80.570812,1101,EasyGO1101,Columbia / Gatestone,0
43.426197,,-80.54454,3638,EasyGO3638,Westforest / Bankside,0
43.43101,,-80.527137,3639,EasyGO3639,Highland / Highland Hls Mall,0
43.426985,,-80.527673,3637,EasyGO3637,Elm Ridge / Queens,0
43.47897,,-80.549022,3630,EasyGO3630,R & T Park,0
43.464127,,-80.541383,3631,EasyGO3631,University / Westmount,0
43.46573,,-80.44636,2345,EasyGO2345,Natchez / Matthew,0
43.464508,,-80.445297,2344,EasyGO2344,Natchez / Halifax,0
43.468482,,-80.451117,2347,EasyGO2347,Victoria / Natchez,0
43.467952,,-80.44831,2346,EasyGO2346,Natchez / Rothsay,0
43.46463,,-80.438603,2341,EasyGO2341,Keewatin / Georgian,0
43.431908,,-80.479993,3054,EasyGO3054,Hoffman / Ottawa,0
43.464417,,-80.443118,2343,EasyGO2343,Heritage / Halifax,0
43.463555,,-80.44176,2342,EasyGO2342,Keewatin / Heritage,0
43.464725,,-80.458792,2349,EasyGO2349,Frederick / Avon,0
43.467363,,-80.45448,2348,EasyGO2348,Victoria / Forfar,0
43.505286,,-80.529518,2067,EasyGO2067,Frobisher / Davenport,0
43.485,,-80.5287,3708,EasyGO3708,St David C.S.S. 2,0
43.4851,,-80.5289,3709,EasyGO3709,St David C.S.S. 3,0
43.44970484,,-80.48869933,1889,EasyGO1889,King / Queen,0
43.44914,,-80.487367,1888,EasyGO1888,King / Frederick,0
43.44735,,-80.483574,1887,EasyGO1887,King / Cedar,0
43.446087,,-80.480633,1886,EasyGO1886,King / Cameron,0
43.445193,,-80.478753,1885,EasyGO1885,King / Pandora,0
43.444185,,-80.476733,1884,EasyGO1884,King / Stirling,0
43.442782,,-80.47349,1883,EasyGO1883,King / Borden,0
43.442125,,-80.472067,1882,EasyGO1882,King / Ottawa,0
43.4402,,-80.5478,3704,EasyGO3704,Resurrection C.S.S. 4,0
43.4403,,-80.5473,3705,EasyGO3705,Resurrection C.S.S. 6,0
43.360875,,-80.300992,2121,EasyGO2121,Chalmers / Mcnaughton,0
43.362302,,-80.301588,2120,EasyGO2120,Chalmers / Dundas,0
43.359977,,-80.305647,2123,EasyGO2123,Mcnaughton / Oak,0
43.36028,,-80.302915,2122,EasyGO2122,Mcnaughton / Lincoln,0
43.358887,,-80.310477,2125,EasyGO2125,Main / Harris,0
43.360653,,-80.307572,2124,EasyGO2124,Mcnaughton / Shade,0
43.350933,,-80.317177,2127,EasyGO2127,Crombie / Grand,0
43.352117,,-80.317157,2126,EasyGO2126,Grand / Victoria,0
43.346895,,-80.319773,2129,EasyGO2129,First / Caen,0
43.348248,,-80.318088,2128,EasyGO2128,Middleton / Francis,0
43.455588,,-80.499322,2410,EasyGO2410,Wellington / Waterloo,0
43.462873,,-80.493773,2659,EasyGO2659,Margaret / Guelph,0
43.46075,,-80.492575,2658,EasyGO2658,Margaret / Wilhelm,0
43.449288,,-80.481395,2653,EasyGO2653,Weber / Cedar,0
43.448662,,-80.480002,2652,EasyGO2652,Weber / Madison,0
43.447953,,-80.478425,2651,EasyGO2651,Weber / Cameron,0
43.447265,,-80.476875,2650,EasyGO2650,Weber / Pandora,0
43.458997,,-80.490588,2657,EasyGO2657,Margaret / Wellington,0
43.456927,,-80.489307,2656,EasyGO2656,Margaret / Victoria,0
43.455593,,-80.487895,2655,EasyGO2655,Margaret / Maynard,0
43.454688,,-80.485735,2654,EasyGO2654,Margaret / Queen,0
43.436255,,-80.302567,3416,EasyGO3416,Renwick / Walker,0
43.431815,,-80.300185,3414,EasyGO3414,Hammet / Black,0
43.432765,,-80.300917,3415,EasyGO3415,Renwick / Gerrard,0
43.427177,,-80.288072,3412,EasyGO3412,Adler / Tyndale,0
43.42544,,-80.293095,3413,EasyGO3413,Adler / Cooper,0
43.418855,,-80.294193,3410,EasyGO3410,Jamieson / Alona,0
43.42068765,,-80.28990875,3411,EasyGO3411,Jamieson / Cooper,0
43.444953,,-80.556683,1990,EasyGO1990,Thorndale / Rosemeadow,0
43.475297,,-80.487593,2015,EasyGO2015,Bridgeport / Mackie,0
43.474935,,-80.489532,2014,EasyGO2014,Bridgeport / Leander,0
43.476208,,-80.48544,2016,EasyGO2016,Bridgeport / Lancaster,0
43.470035,,-80.506308,2011,EasyGO2011,Erb / Ellis,0
43.468655,,-80.510435,2010,EasyGO2010,Erb / Weber,0
43.471672,,-80.499165,2013,EasyGO2013,Erb / Terrystone,0
43.470758,,-80.502435,2012,EasyGO2012,Erb / Cardinal,0
43.445073,,-80.506575,3566,EasyGO3566,280 Victoria St. S.,0
43.433195,,-80.521897,3567,EasyGO3567,Highland / Eagen,0
43.443292,,-80.511228,3564,EasyGO3564,Victoria / Belmont,0
43.446092,,-80.505015,3565,EasyGO3565,Victoria / West,0
43.41122047,,-80.47185531,3034,EasyGO3034,Century Hill / Devonglen,0
43.439812,,-80.420628,3568,EasyGO3568,Fairway / Sims Estate,0
43.452305,,-80.424837,3569,EasyGO3569,Lackner / Bryan,0
43.42404,,-80.49667,2903,EasyGO2903,Elmsdale / Chandler,0
43.422185,,-80.49416,2902,EasyGO2902,Elmsdale / Ottawa,0
43.420978,,-80.497572,2901,EasyGO2901,Ottawa / Howland,0
43.420593,,-80.499935,2900,EasyGO2900,Path To Chandler,0
43.425168,,-80.48374,2907,EasyGO2907,Ottawa / Alpine,0
43.422932,,-80.486732,2906,EasyGO2906,Ottawa / Strasburg,0
43.425197,,-80.490243,2905,EasyGO2905,G.R.T. Strasburg Garage,0
43.411595,,-80.474667,3035,EasyGO3035,Old Country / Century Hill,0
43.430512,,-80.480722,2909,EasyGO2909,479 Ottawa St.,0
43.429297,,-80.481332,2908,EasyGO2908,Ottawa / Imperial,0
43.42733,,-80.424747,1658,EasyGO1658,Morgan / Greendale,0
43.428218,,-80.427607,1659,EasyGO1659,Morgan / Southill,0
43.43117,,-80.416263,1652,EasyGO1652,Morrison / Quinte,0
43.429848,,-80.416362,1653,EasyGO1653,Path To Morrison Park,0
43.432092,,-80.414592,1650,EasyGO1650,Morrison / Grand River,0
43.4336,,-80.415405,1651,EasyGO1651,Quinte / Morrison,0
43.42691,,-80.419143,1656,EasyGO1656,Grand River / River,0
43.42768,,-80.420965,1657,EasyGO1657,Morgan / River,0
43.427755,,-80.415438,1655,EasyGO1655,Grand River / Underhill,0
43.390994,,-80.375489,1630,EasyGO1630,Preston / Fountain,0
43.392152,,-80.377388,1631,EasyGO1631,Preston / Woods,0
43.39467,,-80.37765,1632,EasyGO1632,Preston / Hillview,0
43.461213,,-80.545248,3153,EasyGO3153,Keats Way / Mcdougall,0
43.45895056,,-80.54839242,3151,EasyGO3151,Keats Way / Amos,0
43.457262,,-80.551802,3150,EasyGO3150,Keats Way / Midwood,0
43.46153,,-80.545118,3156,EasyGO3156,Keats Way / Mcdougall,0
43.458655,,-80.490548,2839,EasyGO2839,Margaret / Wellington,0
43.46072,,-80.492793,2838,EasyGO2838,Margaret / Wilhelm,0
43.465895,,-80.506565,2837,EasyGO2837,Weber / Rodney,0
43.46768,,-80.50957,2836,EasyGO2836,Weber / Allen,0
43.457327,,-80.552013,3159,EasyGO3159,Keats Way / Midwood,0
43.459122,,-80.548472,3158,EasyGO3158,Keats Way / Amos,0
43.475038,,-80.517443,2833,EasyGO2833,Weber / Marshall,0
43.479217,,-80.51686,2832,EasyGO2832,University / Marsland,0
43.480147,,-80.5141,2831,EasyGO2831,Carter / University,0
43.47635,,-80.513533,2830,EasyGO2830,Marshall / Carter,0
43.439513,,-80.50776,3391,EasyGO3391,Highland / Belmont,0
43.437953,,-80.51043,3390,EasyGO3390,Highland / Lawrence,0
43.401255,,-80.36065,1435,EasyGO1435,336 Eagle St. N.,0
43.398437,,-80.342633,1432,EasyGO1432,Langs / Fairview Mennonite,0
43.394946,,-80.274782,3394,EasyGO3394,Saginaw / Haddaway,0
43.399635,,-80.336082,1430,EasyGO1430,Langs / Trico,0
43.39885,,-80.340258,1431,EasyGO1431,Langs / Walter,0
43.398275,,-80.292903,3399,EasyGO3399,Burnett / Can-Amera,0
43.40543253,,-80.28709983,3398,EasyGO3398,Can-Amera / Baintree,0
43.407668,,-80.389818,1637,EasyGO1637,Gateway Park / Tu Lane,0
43.39644,,-80.365488,1438,EasyGO1438,Eagle / Hamilton,0
43.394505,,-80.367483,1439,EasyGO1439,Eagle / Sherring,0
43.389545,,-80.285482,1348,EasyGO1348,Saginaw / Burnett,0
43.390167,,-80.282535,1349,EasyGO1349,Saginaw / Light,0
43.40031,,-80.318538,1340,EasyGO1340,500 Conestoga Blvd.,0
43.396665,,-80.31768,1341,EasyGO1341,Conestoga / Bishop,0
43.391293,,-80.314528,1342,EasyGO1342,Dunbar / Conestoga,0
43.39356256,,-80.3043277,1343,EasyGO1343,Can-Amera / Franklin,0
43.3908165,,-80.29928486,1344,EasyGO1344,Saginaw / Green Vista,0
43.38958247,,-80.29619319,1345,EasyGO1345,Saginaw / Cowan,0
43.390142,,-80.292855,1346,EasyGO1346,Saginaw / Stonecairn,0
43.389997,,-80.288945,1347,EasyGO1347,Saginaw / Chamberlin,0
43.44,,-80.5482,3702,EasyGO3702,Resurrection C.S.S. 2,0
43.4401,,-80.548,3703,EasyGO3703,Resurrection C.S.S. 3,0
43.4742,,-80.5456,3700,EasyGO3700,U.W. - B.C. Matthews Hall,0
43.44,,-80.5483,3701,EasyGO3701,Resurrection C.S.S. 1,0
43.4402,,-80.5476,3706,EasyGO3706,Resurrection C.S.S. 5,0
43.485,,-80.5286,3707,EasyGO3707,St David C.S.S. 1,0
43.366552,,-80.286278,1502,EasyGO1502,100 Savage Dr.,0
43.364747,,-80.29189,1503,EasyGO1503,Franklin / Hilltop,0
43.370223,,-80.284273,1500,EasyGO1500,Dobbie / Orion,0
43.367803,,-80.28335,1501,EasyGO1501,Dobbie / Savage,0
43.424362,,-80.510345,3089,EasyGO3089,Stonybrook / Village,0
43.424565,,-80.507183,3088,EasyGO3088,Path To Forest Hill Pk.,0
43.361673,,-80.290613,1504,EasyGO1504,Franklin / Mclaren,0
43.3579,,-80.289672,1505,EasyGO1505,South Cambridge Shopping Ctr,0
43.428732,,-80.501942,3085,EasyGO3085,Greenbrook / Forest Hill,0
43.429017,,-80.498698,3084,EasyGO3084,Greenbrook / Lakeside,0
43.425326,,-80.50524,3087,EasyGO3087,Stonybrook / Westmount,0
43.427772,,-80.506547,3086,EasyGO3086,Westmount / Village,0
43.426353,,-80.495193,3081,EasyGO3081,Stirling / Avalon,0
43.426847,,-80.49206,3080,EasyGO3080,Southmoor / Avalon,0
43.429408,,-80.49729,3083,EasyGO3083,Greenbrook / Stirling,0
43.42808,,-80.495823,3082,EasyGO3082,Stirling / Southmoor,0
43.56113001,,-80.55868863,3885,EasyGO3885,Arthur / Rail Tracks,0
43.56160073,,-80.55867874,3884,EasyGO3884,Arthur / Rail Tracks,0
43.48346144,,-80.52664198,3887,EasyGO3887,King / Columbia,0
43.50379002,,-80.54507198,3886,EasyGO3886,Randall / Kumpf,0
43.43548934,,-80.56075635,3881,EasyGO3881,The Boardwalk Terminal,0
43.43923264,,-80.55402629,3880,EasyGO3880,University / Portsmouth,0
43.43680048,,-80.55961863,3883,EasyGO3883,Ira Needles / University,0
43.49833628,,-80.52404641,3882,EasyGO3882,Davenport / Conestoga Mall,0
43.41904859,,-80.32502126,3889,EasyGO3889,Holiday Inn / Groh,0
43.385,,-80.3979,3888,EasyGO3888,Conestoga College Cambridge Campus,0
43.41283051,,-80.30128124,3971,EasyGO3971,Pinebush / Balmoral,0
43.41179383,,-80.30774132,3970,EasyGO3970,Pinebush / Franklin,0
43.415287,,-80.28759566,3973,EasyGO3973,Pinebush / Thompson,0
43.41389482,,-80.29501613,3972,EasyGO3972,Pinebush / Fleming,0
43.41109353,,-80.28922006,3975,EasyGO3975,Thompson / Lingard,0
43.41400978,,-80.28603166,3974,EasyGO3974,Thompson / Pinebush,0
43.40901242,,-80.2929864,3977,EasyGO3977,Fleming / Sheldon,0
43.41022247,,-80.2933568,3976,EasyGO3976,Fleming / Thompson,0
43.4073519,,-80.30007217,3979,EasyGO3979,Sheldon / Balmoral,0
43.40797615,,-80.29634227,3978,EasyGO3978,Sheldon / Thompson,0
43.47925,,-80.549587,3629,EasyGO3629,R & T Park,0
43.489357,,-80.545395,3628,EasyGO3628,Mccormick,0
43.475772,,-80.526363,3621,EasyGO3621,University / King,0
43.47513,,-80.52755,3620,EasyGO3620,Laurier,0
43.480087,,-80.531902,3623,EasyGO3623,Hazel / Columbia,0
43.487023,,-80.518227,3622,EasyGO3622,Lexington / Dearborn,0
43.489252,,-80.545615,3627,EasyGO3627,Mccormick,0
43.44116,,-80.469717,1881,EasyGO1881,King / Sydney,0
43.464092,,-80.464303,2330,EasyGO2330,River / Victoria,0
43.441995,,-80.492472,3070,EasyGO3070,Mill / Iron Horse Trail,0
43.46545,,-80.459997,2332,EasyGO2332,Victoria / Frederick,0
43.466243,,-80.457423,2333,EasyGO2333,Victoria / Frederick,0
43.466718,,-80.45592,2334,EasyGO2334,1151 Victoria St.,0
43.46738,,-80.453823,2335,EasyGO2335,Victoria / Forfar,0
43.468417,,-80.450663,2336,EasyGO2336,Victoria / Natchez,0
43.440185,,-80.49053,3071,EasyGO3071,Mill / Lansdowne,0
43.47066,,-80.44408,2338,EasyGO2338,Victoria / Smetana,0
43.470947,,-80.440882,2339,EasyGO2339,Lackner / Victoria,0
43.4390118,,-80.49121452,3072,EasyGO3072,Spadina / Wentworth,0
43.438943,,-80.492757,3073,EasyGO3073,Spadina / Highland,0
43.439837,,-80.466293,1880,EasyGO1880,King / Rockway Ctr.,0
43.43616,,-80.491728,3074,EasyGO3074,Stirling / Highland,0
43.435302,,-80.494093,3075,EasyGO3075,Stirling / Lorne,0
43.4393,,-80.4613,3715,EasyGO3715,Eastwood S.S.,0
43.4564,,-80.5098,3714,EasyGO3714,Kitchener C.I.,0
43.4851,,-80.5293,3711,EasyGO3711,St David C.S.S. 5,0
43.4851,,-80.5291,3710,EasyGO3710,St David C.S.S. 4,0
43.4852,,-80.5294,3712,EasyGO3712,St David C.S.S. 6,0
43.432897,,-80.496142,3077,EasyGO3077,Stirling / Lakeside Park,0
43.4638,,-80.5221,3719,EasyGO3719,Uptown Waterloo,0
43.429232,,-80.496403,3078,EasyGO3078,Stirling / Greenbrook,0
43.428332,,-80.494897,3079,EasyGO3079,Southmoor / Yager,0
43.464435,,-80.490572,2488,EasyGO2488,Guelph / St. Leger,0
43.463883,,-80.492127,2489,EasyGO2489,Guelph / Crestwood,0
43.465638,,-80.484862,2486,EasyGO2486,Guelph / Englewood,0
43.406875,,-80.496083,2950,EasyGO2950,Erinbrook / Ridgeway,0
43.467003,,-80.479532,2484,EasyGO2484,Maple / Guelph,0
43.466147,,-80.481961,2485,EasyGO2485,Guelph / Clifton,0
43.471428,,-80.482117,2482,EasyGO2482,Maple / Union,0
43.468818,,-80.480727,2483,EasyGO2483,Maple / Arnold,0
43.47121,,-80.485807,2480,EasyGO2480,Union / Bond,0
43.409112,,-80.497253,2951,EasyGO2951,Tillsley / Erinbrook,0
43.352678,,-80.323575,2248,EasyGO2248,St. Andrews / Cedar,0
43.351563,,-80.329355,2249,EasyGO2249,Westgate Ctr.,0
43.354058,,-80.308945,2244,EasyGO2244,Centre / Concession,0
43.366588,,-80.285746,1532,EasyGO1532,111 Savage Dr.,0
43.35655,,-80.318213,2246,EasyGO2246,St. Andrews / George,0
43.354432,,-80.321975,2247,EasyGO2247,St. Andrews / Fraser,0
43.348713,,-80.311027,2240,EasyGO2240,Albert / Ballantyne,0
43.34949,,-80.307065,2241,EasyGO2241,Ballantyne / Mckay,0
43.350935,,-80.30739,2242,EasyGO2242,Mckay / South,0
43.352802,,-80.308572,2243,EasyGO2243,Centre / Elliott,0
43.46078,,-80.498957,2464,EasyGO2464,Weber / Blucher,0
43.462147,,-80.500438,2465,EasyGO2465,Weber / Raitar,0
43.464402,,-80.503705,2466,EasyGO2466,Weber / Roger,0
43.465523,,-80.504615,2467,EasyGO2467,Union / Weber,0
43.454273,,-80.492655,2461,EasyGO2461,Weber / Water,0
43.456973,,-80.495038,2462,EasyGO2462,Weber / Wellington,0
43.45925,,-80.49728,2463,EasyGO2463,Weber / Wilhelm,0
43.466065,,-80.503015,2468,EasyGO2468,Union / Ellis,0
43.46709,,-80.50016,2469,EasyGO2469,Union / Margaret,0
43.445138,,-80.529582,3253,EasyGO3253,Westwood / Westwood Cres.,0
43.417413,,-80.303167,3409,EasyGO3409,Jamieson / Commerce,0
43.418162,,-80.308162,3408,EasyGO3408,Jamieson / Woodland Plaza,0
43.485105,,-80.55966,1188,EasyGO1188,Toll Gate / Highpoint,0
43.486712,,-80.563085,1189,EasyGO1189,Highpoint / Dogwood,0
43.497602,,-80.550452,2068,EasyGO2068,Weber / Northfield,0
43.502243,,-80.556958,2069,EasyGO2069,Northlake / Black Forest,0
43.486157,,-80.559077,1187,EasyGO1187,Toll Gate / Dogwood,0
43.47818,,-80.50836,2792,EasyGO2792,Lincoln / Margaret,0
43.479192,,-80.507755,2793,EasyGO2793,Lincoln / Mayfield,0
43.476333,,-80.513758,2790,EasyGO2790,Carter / Marshall,0
43.476242,,-80.50951,2791,EasyGO2791,Marshall / Lincoln,0
43.510798,,-80.530778,2064,EasyGO2064,Mcmurray / Bathurst,0
43.509048,,-80.528827,2065,EasyGO2065,Mcmurray / Northland,0
43.482015,,-80.505813,2794,EasyGO2794,Lincoln / Bluevale,0
43.48333,,-80.50761,2795,EasyGO2795,Lincoln / University,0
43.487043,,-80.555423,1185,EasyGO1185,Glen Forrest / Brookhaven,0
43.489822,,-80.547727,1182,EasyGO1182,Cedarbrae / Sprucehill,0
43.444122,,-80.532788,3255,EasyGO3255,Westwood / Huntington,0
43.488012,,-80.550237,1183,EasyGO1183,Cedarbrae/Heasley Pk. Trail,0
43.50351717,,-80.52799477,1180,EasyGO1180,Northfield / Davenport,0
43.490035,,-80.546096,1181,EasyGO1181,Cedarbrae / Mount Anne,0
43.445208,,-80.479098,3579,EasyGO3579,King / Pandora,0
43.4497,,-80.480825,3578,EasyGO3578,Krug / Lancaster,0
43.45119,,-80.486133,3575,EasyGO3575,Frederick / Weber,0
43.45505,,-80.446965,3574,EasyGO3574,River / Gibson,0
43.442513,,-80.535163,3256,EasyGO3256,Westwood / Gallarno,0
43.475264,,-80.429204,3571,EasyGO3571,Centennial / Victoria,0
43.439837,,-80.420918,3570,EasyGO3570,Fairway / Briarmeadow,0
43.47314,,-80.43678,3573,EasyGO3573,Forwell / Victoria,0
43.472242,,-80.432357,3572,EasyGO3572,Centennial / Forwell,0
43.472255,,-80.514852,2666,EasyGO2666,Weber / Mackay,0
43.474983,,-80.517103,2667,EasyGO2667,Weber / Marshall,0
43.469188,,-80.511445,2664,EasyGO2664,Weber / Royal,0
43.471102,,-80.5135,2665,EasyGO2665,Weber / Lincoln,0
43.467197,,-80.508385,2662,EasyGO2662,Weber / Cornwall,0
43.467887,,-80.509535,2663,EasyGO2663,Weber / Allen,0
43.46546,,-80.505215,2660,EasyGO2660,Union / Weber,0
43.466432,,-80.507112,2661,EasyGO2661,Weber / Bristol,0
43.473488,,-80.515907,2668,EasyGO2668,Weber / Noecker,0
43.476015,,-80.517943,2669,EasyGO2669,Weber / Lodge,0
43.422437,,-80.487323,2938,EasyGO2938,Strasburg / Ottawa,0
43.420895,,-80.485627,2939,EasyGO2939,Strasburg / Barwood,0
43.427103,,-80.482227,2936,EasyGO2936,Ottawa / Homer Watson,0
43.425102,,-80.484072,2937,EasyGO2937,Ottawa / Alpine,0
43.431968,,-80.479525,2934,EasyGO2934,Ottawa / Hoffman,0
43.429713,,-80.481582,2935,EasyGO2935,Ottawa / Kehl,0
43.434608,,-80.479942,2932,EasyGO2932,409 Mill St.,0
43.434172,,-80.479018,2933,EasyGO2933,Mill / Ottawa,0
43.436105,,-80.486085,2930,EasyGO2930,Mill / Heiman,0
43.435068,,-80.4829,2931,EasyGO2931,Mill / Borden,0
43.4981,,-80.5286,3799,EasyGO3799,Conestoga Mall Terminal,0
43.4982,,-80.5293,3798,EasyGO3798,Conestoga Mall Terminal,0
43.426765,,-80.426583,1645,EasyGO1645,King / Heffner Crt.,0
43.425752,,-80.422578,1644,EasyGO1644,King / Hofstetter,0
43.426027,,-80.413402,1647,EasyGO1647,Freeport Health Centre,0
43.428268,,-80.431093,1646,EasyGO1646,King / Fairway,0
43.420108,,-80.40927,1641,EasyGO1641,King / Riverbank,0
43.41073,,-80.399583,1640,EasyGO1640,King / Deer Ridge,0
43.425278,,-80.419993,1643,EasyGO1643,King / River,0
43.424093,,-80.412268,1642,EasyGO1642,Freeport Health Centre,0
43.42999,,-80.416372,1649,EasyGO1649,Path To Morrison Park,0
43.427855,,-80.414458,1648,EasyGO1648,Morrison / Grand River,0
43.3911,,-80.3195,3797,EasyGO3797,Cambridge Ctr. Terminal,0
43.504483,,-80.505975,1926,EasyGO1926,Eastbridge / Mayflower,0
43.3706,,-80.3372,3796,EasyGO3796,Bismark / Devils Creek,0
43.497123,,-80.521133,2808,EasyGO2808,Davenport / Kingscourt,0
43.500218,,-80.529488,2809,EasyGO2809,Kraus / Conestogo,0
43.43924718,,-80.53558255,3169,EasyGO3169,Fischer-Hallman / Stoke,0
43.44353,,-80.544692,3167,EasyGO3167,Fischer-Hallman / University,0
43.47913623,,-80.42805781,3164,EasyGO3164,Shirley / Riverview,0
43.448563,,-80.550302,3165,EasyGO3165,Fischer-Hallman / Thorndale,0
43.45785299,,-80.55764871,3162,EasyGO3162,Fischer-Hallman / Keats,0
43.4779153,,-80.43078349,3163,EasyGO3163,Shirley / Crestview,0
43.458187,,-80.554582,3160,EasyGO3160,Keats Way / Candlewood,0
43.494327,,-80.51354,2805,EasyGO2805,Davenport / Foxhunt,0
43.39863,,-80.341087,1421,EasyGO1421,Langs / Walter,0
43.39814,,-80.344017,1420,EasyGO1420,Langs / Concession,0
43.399628,,-80.335197,1423,EasyGO1423,Langs / Trico,0
43.399108,,-80.338213,1422,EasyGO1422,Langs / Valentine,0
43.416888,,-80.541103,3368,EasyGO3368,Driftwood / Highview,0
43.41583,,-80.54118,3369,EasyGO3369,Driftwood / Old Forest,0
43.397452,,-80.324872,1427,EasyGO1427,480 Hespeler Rd.,0
43.400757,,-80.325902,1426,EasyGO1426,Hespeler / Langs,0
43.422482,,-80.545558,3364,EasyGO3364,Rolling Meadows / Newbury,0
43.420043,,-80.548317,3365,EasyGO3365,Rolling Meadows / Newbury,0
43.418335,,-80.545575,3366,EasyGO3366,Rolling Meadows / Trailwood,0
43.41771,,-80.543112,3367,EasyGO3367,Rolling Meadow / Meadow Wood,0
43.428288,,-80.530528,3360,EasyGO3360,Westheights / Blackwell,0
43.426218,,-80.540687,3361,EasyGO3361,Path To Bankside,0
43.424615,,-80.543928,3362,EasyGO3362,Westheights / Highland,0
43.422693,,-80.543187,3363,EasyGO3363,Rolling Meadows / Westheights,0
43.350916,,-80.316834,2157,EasyGO2157,Crombie / Grand,0
43.453475,,-80.470223,2402,EasyGO2402,Krug / Melrose,0
43.452695,,-80.472553,2403,EasyGO2403,Krug / East,0
43.3832,,-80.3175,1359,EasyGO1359,Munch / Sekura,0
43.391328,,-80.315023,1358,EasyGO1358,Dunbar / Conestoga,0
43.454303,,-80.46771,2400,EasyGO2400,Krug / Becker,0
43.396163,,-80.28917,1352,EasyGO1352,Essex Point / Burnett,0
43.45385,,-80.469013,2401,EasyGO2401,Krug / Dumfries,0
43.393912,,-80.303852,1357,EasyGO1357,Can-Amera / Franklin,0
43.391616,,-80.300505,1356,EasyGO1356,St Benedict C.S.S. 2,0
43.394522,,-80.294533,1354,EasyGO1354,Green Vista / Whittaker,0
43.357276,,-80.312954,1519,EasyGO1519,Ainslie Street Terminal,0
43.357407,,-80.312815,1518,EasyGO1518,Ainslie Street Terminal,0
43.357659,,-80.313456,1514,EasyGO1514,Ainslie Street Terminal,0
43.357581,,-80.31275,1517,EasyGO1517,Ainslie Street Terminal,0
43.357626,,-80.312972,1516,EasyGO1516,Ainslie Street Terminal,0
43.357171,,-80.313522,1511,EasyGO1511,Ainslie Street Terminal,0
43.354863,,-80.307122,1510,EasyGO1510,Concession / Cameron,0
43.3575,,-80.31348,1513,EasyGO1513,Ainslie Street Terminal,0
43.357334,,-80.3135,1512,EasyGO1512,Ainslie Street Terminal,0
43.39905,,-80.482147,1798,EasyGO1798,830 Trillium Dr.,0
43.416808,,-80.501167,3184,EasyGO3184,Westmount / Laurentian,0
43.412765,,-80.500207,3185,EasyGO3185,Westmount / Williamsburg,0
43.411763,,-80.496137,3186,EasyGO3186,Path To Killarney,0
43.416085,,-80.47942,3187,EasyGO3187,Block Line / Strasburg,0
43.430268,,-80.508555,3180,EasyGO3180,Westmount / Forest Hill,0
43.425273,,-80.504518,3181,EasyGO3181,Westmount / Stonybrook,0
43.42064,,-80.502087,3182,EasyGO3182,Westmount / Ottawa,0
43.419307,,-80.501738,3183,EasyGO3183,Westmount / Ottawa,0
43.411805,,-80.496658,3188,EasyGO3188,Path To Killarney,0
43.41148328,,-80.49897846,3189,EasyGO3189,Block Line / Westmount,0
43.404142,,-80.284498,3397,EasyGO3397,Coulthard / Baintree,0
43.40527266,,-80.2807072,3396,EasyGO3396,Coulthard / Arthur Fach,0
43.41373415,,-80.28611642,3988,EasyGO3988,Thompson / Pinebush,0
43.41508764,,-80.28747325,3989,EasyGO3989,Pinebush / Thompson,0
43.40292133,,-80.31869093,3984,EasyGO3984,Sheldon / Conestoga,0
43.40055446,,-80.31847364,3985,EasyGO3985,505 Conestoga Blvd.,0
43.3966919,,-80.31750117,3986,EasyGO3986,Conestoga / Bishop,0
43.41134492,,-80.28852899,3987,EasyGO3987,Thompson / Lingard,0
43.40644743,,-80.30533112,3980,EasyGO3980,Sheldon / Franklin,0
43.40478392,,-80.30998342,3981,EasyGO3981,Sheldon / Wolseley,0
43.4030979,,-80.31230274,3982,EasyGO3982,Sheldon / Wolseley,0
43.40295415,,-80.31530902,3983,EasyGO3983,Sheldon / Corydon,0
43.336582,,-80.30108,3612,EasyGO3612,Langlaw / Schroeder,0
43.457837,,-80.482622,2323,EasyGO2323,Queen / Lancaster,0
43.456765,,-80.483491,2322,EasyGO2322,Queen / St. Leger,0
43.454655,,-80.485306,2321,EasyGO2321,Queen / Margaret,0
43.453217,,-80.486393,2320,EasyGO2320,Queen / Ahrens,0
43.460332,,-80.4766,2326,EasyGO2326,Victoria / Indiana,0
43.459703,,-80.478782,2325,EasyGO2325,Victoria / Filbert,0
43.391753,,-80.34192,1446,EasyGO1446,Fairview / Bishop,0
43.46239,,-80.461832,2329,EasyGO2329,River / Frederick,0
43.458682,,-80.473337,2328,EasyGO2328,Edna / Frederick,0
43.391625,,-80.344247,1445,EasyGO1445,Bishop / Pineview,0
43.44131405,,-80.48477028,3618,EasyGO3618,Courtland / Stirling,0
43.39053,,-80.346372,1444,EasyGO1444,Bishop / Duke,0
43.47524,,-80.5279,3619,EasyGO3619,Laurier,0
43.468558,,-80.567125,1115,EasyGO1115,Fischer-Hallman / Columbia,0
43.470683,,-80.568997,1114,EasyGO1114,Fischer-Hallman / Gatestone,0
43.5099,,-80.5245,3760,EasyGO3760,Frobisher / Superior,0
43.5123,,-80.5208,3761,EasyGO3761,Northfield / Bridge,0
43.5142,,-80.5196,3762,EasyGO3762,Northfield / Toman,0
43.517302,,-80.515966,3763,EasyGO3763,University / Northfield,0
43.5186,,-80.5092,3764,EasyGO3764,University / Country Squire,0
43.5176,,-80.5027,3765,EasyGO3765,University / R.I.M. Park,0
43.5113,,-80.4978,3766,EasyGO3766,University / New Bedford,0
43.5082,,-80.4977,3767,EasyGO3767,University / Woolwich,0
43.498,,-80.5053,3768,EasyGO3768,Bridge / Lexington,0
43.4905,,-80.5164,3769,EasyGO3769,Lexington / Dearborn,0
43.46799,,-80.56497,1116,EasyGO1116,Columbia / Fischer-Hallman,0
43.40222,,-80.459793,1792,EasyGO1792,Trillium / Steckle,0
43.427665,,-80.429757,1562,EasyGO1562,3065 King St. E.,0
43.457212,,-80.495293,2499,EasyGO2499,Weber / Wellington,0
43.458595,,-80.496587,2498,EasyGO2498,Weber / Wilhelm,0
43.449303,,-80.501435,3225,EasyGO3225,Victoria / Michael,0
43.46529,,-80.496546,2491,EasyGO2491,Margaret / Breithaupt Ctr.,0
43.463272,,-80.49389,2490,EasyGO2490,Guelph / Margaret,0
43.466333,,-80.502757,2493,EasyGO2493,Union / Ellis,0
43.467222,,-80.5003,2492,EasyGO2492,Union / Margaret,0
43.462547,,-80.501085,2495,EasyGO2495,Weber / Raitar,0
43.464325,,-80.50387,2494,EasyGO2494,Weber / Roger,0
43.460339,,-80.498636,2497,EasyGO2497,Weber / Blucher,0
43.461469,,-80.49991,2496,EasyGO2496,Weber / Guelph,0
43.419578,,-80.409172,1566,EasyGO1566,King / Riverbank,0
43.340012,,-80.327078,2259,EasyGO2259,Culham / Ridgewood,0
43.339553,,-80.329757,2258,EasyGO2258,Culham / Ridgewood,0
43.336473,,-80.330733,2257,EasyGO2257,Grand Ridge / Oak Hill,0
43.338893,,-80.33241,2256,EasyGO2256,Stirling Macgregor,0
43.340738,,-80.334135,2255,EasyGO2255,Grand Ridge / St. Andrews,0
43.341558,,-80.33595,2254,EasyGO2254,Grand Ridge / Mark,0
43.342925,,-80.337522,2253,EasyGO2253,Wedgewood / Grand Ridge,0
43.344835,,-80.334095,2252,EasyGO2252,Southwood / Wedgewood,0
43.346472,,-80.335105,2251,EasyGO2251,Southwood / Westwood,0
43.349765,,-80.336212,2250,EasyGO2250,Southwood / Cedar,0
43.469392,,-80.492827,2477,EasyGO2477,St. Leger / Union,0
43.467737,,-80.491803,2476,EasyGO2476,St. Leger / Prueter,0
43.466132,,-80.490825,2475,EasyGO2475,St. Leger / Fairfield,0
43.448228,,-80.5026,3224,EasyGO3224,Victoria / Park,0
43.464007,,-80.491395,2473,EasyGO2473,Guelph / Floyd,0
43.463365,,-80.494562,2472,EasyGO2472,Margaret / Guelph,0
43.465069,,-80.49643,2471,EasyGO2471,Margaret / Fairfield,0
43.471213,,-80.48711,2479,EasyGO2479,Union / Oxford,0
43.47097,,-80.489232,2478,EasyGO2478,Union / Boehmer,0
43.475827,,-80.52545,2785,EasyGO2785,University / King,0
43.450875,,-80.499673,3227,EasyGO3227,Victoria / Joseph,0
43.477647,,-80.520518,2787,EasyGO2787,University / Weber,0
43.47667,,-80.523278,2786,EasyGO2786,University / Regina,0
43.468935,,-80.538833,2781,EasyGO2781,University / Seagram,0
43.466133,,-80.540283,2780,EasyGO2780,University / Ring Road Exit,0
43.474127,,-80.53031,2783,EasyGO2783,University / Hemlock,0
43.479748,,-80.514133,2789,EasyGO2789,Carter / Winfield,0
43.479302,,-80.516198,2788,EasyGO2788,University / Marsland,0
43.494597,,-80.56843,2079,EasyGO2079,Conservation / Westmount,0
43.496635,,-80.572073,2078,EasyGO2078,Lake Louise / Osprey,0
43.495625,,-80.566,2073,EasyGO2073,Northlake / Conservation,0
43.497628,,-80.567238,2072,EasyGO2072,Northlake / Burning Bush,0
43.498978,,-80.564012,2071,EasyGO2071,Northlake / Twinflower,0
43.501218,,-80.559893,2070,EasyGO2070,Northlake / Fern,0
43.49462,,-80.577215,2077,EasyGO2077,Lake Louise / Glacier,0
43.49278,,-80.573982,2075,EasyGO2075,Conservation / Coldstream,0
43.494307,,-80.569652,2074,EasyGO2074,Conservation / Westmount,0
43.444345,,-80.508253,3221,EasyGO3221,Victoria / Patricia,0
43.449752,,-80.43821,3508,EasyGO3508,Old Chicopee / Conway,0
43.42238,,-80.529225,3500,EasyGO3500,Westheights / Autumn Hill,0
43.422655,,-80.542218,3501,EasyGO3501,Westheights / Summerhill,0
43.436775,,-80.430987,3502,EasyGO3502,Kinzie / River,0
43.440002,,-80.43223,3503,EasyGO3503,Old Chicopee / Bancroft,0
43.443083,,-80.431268,3504,EasyGO3504,Old Chicopee / Daimler,0
43.445642,,-80.433643,3505,EasyGO3505,Old Chicopee / Roehampton,0
43.449793,,-80.424368,3506,EasyGO3506,Oldfield / Wendy,0
43.449105,,-80.426568,3507,EasyGO3507,Oldfield / Brierdale,0
43.476848,,-80.523272,2671,EasyGO2671,University / Regina,0
43.477828,,-80.520718,2670,EasyGO2670,University / Weber,0
43.474283,,-80.530577,2673,EasyGO2673,University / Hemlock,0
43.47236,,-80.535725,2675,EasyGO2675,University / Phillip,0
43.473265,,-80.533148,2674,EasyGO2674,University / Sunview,0
43.466187,,-80.540567,2677,EasyGO2677,University / Ring Road Exit,0
43.468427,,-80.539408,2676,EasyGO2676,University / Seagram,0
43.462177,,-80.539027,2679,EasyGO2679,Westmount / Westcourt,0
43.463863,,-80.540618,2678,EasyGO2678,Westmount / University,0
43.441975,,-80.514685,3220,EasyGO3220,Victoria / Lawrence,0
43.438408,,-80.486897,2929,EasyGO2929,Stirling / Mill,0
43.441528,,-80.484093,2928,EasyGO2928,Stirling / Courtland,0
43.447493,,-80.485907,2921,EasyGO2921,Charles / Eby,0
43.44643,,-80.48362,2920,EasyGO2920,Charles / Cedar,0
43.447073,,-80.485435,2923,EasyGO2923,Charles / Eby,0
43.448283,,-80.48777,2922,EasyGO2922,Charles / Benton,0
43.44463,,-80.480503,2925,EasyGO2925,Charles / Pandora,0
43.446288,,-80.483787,2924,EasyGO2924,Charles / Cedar,0
43.442815,,-80.481082,2927,EasyGO2927,Stirling / Kaufman Pk.,0
43.438807,,-80.52431,3214,EasyGO3214,Hazelglen / Mooregate,0
43.440347,,-80.526422,3215,EasyGO3215,Hazelglen / Chopin,0
43.443355,,-80.523068,3216,EasyGO3216,Chopin / Westmount,0
43.441893,,-80.522457,3217,EasyGO3217,Westmount / Karn,0
43.434835,,-80.533157,3210,EasyGO3210,Victoria / Oprington,0
43.399963,,-80.375685,1635,EasyGO1635,Shantz Hill / Preston Pkwy.,0
43.43763835,,-80.52581758,3212,EasyGO3212,Victoria / Monte Carlo,0
43.438638,,-80.522905,3213,EasyGO3213,Victoria / Vicmount,0
43.408103,,-80.392465,1638,EasyGO1638,Gateway Park / Sportsworld,0
43.409681,,-80.397334,1639,EasyGO1639,Sportsworld Crossing / King,0
43.42465,,-80.495198,2904,EasyGO2904,Chandler / Bonfield,0
43.43965,,-80.520297,3218,EasyGO3218,Victoria / Westmount,0
43.440593,,-80.517425,3219,EasyGO3219,Victoria / Paulander,0
43.445863,,-80.56014,1988,EasyGO1988,Westvale / Edenvalley,0
43.443738,,-80.55924,1989,EasyGO1989,Thorndale / Westvale,0
43.444883,,-80.506537,3222,EasyGO3222,Victoria / West,0
43.496507,,-80.515765,2815,EasyGO2815,Path To Redfox,0
43.497485,,-80.518472,2814,EasyGO2814,Davenport / Kidsability,0
43.493005,,-80.512387,2817,EasyGO2817,Lexington / Davenport,0
43.499148,,-80.525123,2811,EasyGO2811,Davenport / Conestoga Mall,0
43.501775,,-80.530632,2810,EasyGO2810,Kraus / Northfield,0
43.497052,,-80.520597,2813,EasyGO2813,Davenport / Kingscourt,0
43.497342,,-80.523255,2812,EasyGO2812,Davenport / Kingscourt,0
43.496583,,-80.507183,2819,EasyGO2819,Lexington / Lee,0
43.494813,,-80.509825,2818,EasyGO2818,Lexington / Dunvegan,0
43.433618,,-80.510268,3179,EasyGO3179,Westmount / Queens,0
43.435287,,-80.512538,3178,EasyGO3178,Westmount / Overlea,0
43.4360469,,-80.52886197,3170,EasyGO3170,Fischer-Hallman / Victoria,0
43.431867,,-80.524765,3173,EasyGO3173,Highland / Fischer-Hallman,0
43.43345773,,-80.5268586,3172,EasyGO3172,Fischer-Hallman / Bankside,0
43.433933,,-80.519382,3175,EasyGO3175,Highland / Fieldgate,0
43.433023,,-80.521888,3174,EasyGO3174,Highland / Eagen,0
43.435075,,-80.516218,3176,EasyGO3176,Highland / Highland Crescent,0
43.424983,,-80.543948,3379,EasyGO3379,Westheights / Highland,0
43.422388,,-80.541747,3378,EasyGO3378,Westheights / Blackwell,0
43.420517,,-80.54039,3377,EasyGO3377,Westheights / Broken Oak,0
43.418652,,-80.537137,3376,EasyGO3376,Westheights / Winding,0
43.418053,,-80.53458,3375,EasyGO3375,Driftwood / Westheights,0
43.416557,,-80.534068,3374,EasyGO3374,Driftwood / Royal Orchard,0
43.413708,,-80.535398,3373,EasyGO3373,Driftwood / Somerfield,0
43.41225,,-80.53763,3372,EasyGO3372,Driftwood / Driftwood Pk.,0
43.412892,,-80.539253,3371,EasyGO3371,Driftwood / Yellow Birch,0
43.414347,,-80.540648,3370,EasyGO3370,Driftwood / Driftwood Place,0
43.395327,,-80.44554,1748,EasyGO1748,Pioneer / Doon Village,0
43.39428,,-80.44828,1749,EasyGO1749,Pioneer / Perin,0
43.394285,,-80.433662,1744,EasyGO1744,Pioneer / Old Carriage,0
43.393533,,-80.436891,1745,EasyGO1745,Pioneer / Bechtel,0
43.393663,,-80.43698,1746,EasyGO1746,Pioneer / Bechtel,0
43.39412,,-80.441705,1747,EasyGO1747,Pioneer / Upper Canada,0
43.395973,,-80.426068,1740,EasyGO1740,Green Valley / Mill Park,0
43.395543,,-80.428302,1741,EasyGO1741,Green Valley / Arrowhead,0
43.396107,,-80.429745,1742,EasyGO1742,Green Valley / Pioneer,0
43.395648,,-80.431635,1743,EasyGO1743,Pioneer / Homer Watson,0
43.478035,,-80.525662,1164,EasyGO1164,Hickory / King,0
43.476328,,-80.52507,1165,EasyGO1165,King / University,0
43.47603,,-80.525778,1166,EasyGO1166,University / King,0
43.475522,,-80.528253,1167,EasyGO1167,Laurier,0
43.483953,,-80.53549,1160,EasyGO1160,Hazel / Tamarack,0
43.426645,,-80.52758,3308,EasyGO3308,Elm Ridge / Queens,0
43.478955,,-80.531031,1162,EasyGO1162,Waterloo C.I.,0
43.477902,,-80.530213,1163,EasyGO1163,Hazel / Hickory,0
43.425672,,-80.526443,3309,EasyGO3309,Elm Ridge / Hillbrook,0
43.477882,,-80.53003,1168,EasyGO1168,Hazel / Hickory,0
43.478332,,-80.530403,1169,EasyGO1169,Waterloo C.I. 2,0
43.421765,,-80.51302,3092,EasyGO3092,Greenbrook / Ruskview,0
43.429662,,-80.52021,3304,EasyGO3304,Queens / Eagen,0
43.386312,,-80.297957,1366,EasyGO1366,Robson / Burnett,0
43.42922,,-80.52246,3305,EasyGO3305,Queens / Overlea,0
43.387133,,-80.295384,1367,EasyGO1367,Cowan / Robson,0
43.4979,,-80.4944,3786,EasyGO3786,Dansbury / Palamino,0
43.502877,,-80.497958,2034,EasyGO2034,Lexington / Malabar,0
43.408463,,-80.396352,1568,EasyGO1568,Sportsworld Crossing,0
43.40941194,,-80.39307702,1569,EasyGO1569,Sportsworld Crossing,0
43.417988,,-80.311418,1298,EasyGO1298,Holiday Inn / Franklin,0
43.431587,,-80.309243,1299,EasyGO1299,Tannery / Queen,0
43.402697,,-80.460638,1788,EasyGO1788,Trillium / Steckle,0
43.421352,,-80.440673,1560,EasyGO1560,385 Fairway Rd.,0
43.428238,,-80.432223,1561,EasyGO1561,Fairway / King,0
43.403978,,-80.351891,1290,EasyGO1290,Eagle / Arlington,0
43.426163,,-80.425108,1563,EasyGO1563,3227 King St. E.,0
43.425722,,-80.423122,1564,EasyGO1564,King / Hofstetter,0
43.4171911,,-80.31594557,1297,EasyGO1297,Jacob Hespeler S.S.,0
43.417372,,-80.324295,1294,EasyGO1294,At Cambridge Markets,0
43.416402,,-80.321398,1295,EasyGO1295,200 Holiday Inn Dr.,0
43.38418,,-80.312432,1360,EasyGO1360,Munch / Elgin,0
43.39157,,-80.45046,1712,EasyGO1712,Pioneer / Black Walnut,0
43.501295,,-80.500282,2033,EasyGO2033,Lexington / Bertha,0
43.399867,,-80.459253,1789,EasyGO1789,Trillium / Trillium Park,0
43.4926,,-80.5816,3698,EasyGO3698,Lake Louise / Pinery,0
43.435407,,-80.51246,3197,EasyGO3197,Westmount / Overlea,0
43.433308,,-80.509872,3196,EasyGO3196,Westmount / Queens,0
43.431025,,-80.508848,3195,EasyGO3195,Westmount / Forest Hill,0
43.427475,,-80.506112,3194,EasyGO3194,Westmount / Village,0
43.425497,,-80.504478,3193,EasyGO3193,Westmount / Stonybrook,0
43.41952,,-80.501565,3192,EasyGO3192,Westmount / Ottawa,0
43.417052,,-80.501,3191,EasyGO3191,Westmount / Laurentian,0
43.413222,,-80.500135,3190,EasyGO3190,Westmount / Williamsburg,0
43.5101,,-80.543,3728,EasyGO3728,King / Bridge,0
43.435577,,-80.5155,3198,EasyGO3198,Highland / Westmount,0
43.473521,,-80.541776,3699,EasyGO3699,U.W. - Davis Centre,0
43.434017,,-80.519622,3199,EasyGO3199,Highland / Fieldgate,0
43.407643,,-80.475013,1864,EasyGO1864,Strasburg / Bleams,0
